{"weather_station":[{"name":"板橋","id":"46688","lng":121.442017,"lat":24.997647,"海拔高度":"9.7m","縣市":"新北市","地址":"板橋區大觀路二段265巷62號","英文name":"BANQIAO","設站日期":"1972\/03\/01"},
{"name":"淡水","id":"46690","lng":121.448906,"lat":25.164889,"海拔高度":"19.0m","縣市":"新北市","地址":"淡水區中正東路42巷6號","英文name":"TAMSUI","設站日期":"1942\/01\/01"}
,
{"name":"鞍部","id":"46691","lng":121.529731,"lat":25.182586,"海拔高度":"825.8m","縣市":"臺北市","地址":"北投區陽明山竹子湖路111號","英文name":"ANBU","設站日期":"1937\/01\/01"}
,
{"name":"臺北","id":"46692","lng":121.514853,"lat":25.037658,"海拔高度":"6.255m","縣市":"臺北市","地址":"中正區公園路64號","英文name":"TAIPEI","設站日期":"1896\/01\/01"}
,
{"name":"竹子湖","id":"46693","lng":121.544547,"lat":25.162078,"海拔高度":"607.1m","縣市":"臺北市","地址":"北投區陽明山竹子湖路2號","英文name":"ZHUZIHU","設站日期":"1937\/01\/01"}
,
{"name":"基隆","id":"46694","lng":121.740475,"lat":25.133314,"海拔高度":"26.7m","縣市":"基隆市","地址":"仁愛區港西街6號6樓(海港大樓6樓)","英文name":"KEELUNG","設站日期":"1946\/01\/01"}
,
{"name":"彭佳嶼","id":"46695","lng":122.079744,"lat":25.627975,"海拔高度":"101.7m","縣市":"基隆市","地址":"中正區彭佳嶼","英文name":"PENGJIAYU","設站日期":"1910\/01\/01"}
,
{"name":"花蓮","id":"46699","lng":121.613275,"lat":23.975128,"海拔高度":"16.0m","縣市":"花蓮縣","地址":"花蓮市花崗街24號","英文name":"HUALIEN","設站日期":"1910\/01\/01"}
,
{"name":"新屋","id":"46705","lng":121.047486,"lat":25.006744,"海拔高度":"20.6m","縣市":"桃園市","地址":"新屋區東興路二段946號","英文name":"XINWU","設站日期":"2013\/07\/01"}
,
{"name":"蘇澳","id":"46706","lng":121.857372,"lat":24.596736,"海拔高度":"24.9m","縣市":"宜蘭縣","地址":"蘇澳鎮港區路1號6樓(蘇澳港行政大樓6樓)","英文name":"SU-AO","設站日期":"1981\/07\/01"}
,
{"name":"宜蘭","id":"46708","lng":121.756528,"lat":24.763975,"海拔高度":"7.2m","縣市":"宜蘭縣","地址":"宜蘭市力行路150號","英文name":"YILAN","設站日期":"1935\/01\/01"}
,
{"name":"金門","id":"46711","lng":118.289281,"lat":24.407306,"海拔高度":"47.88m","縣市":"金門縣","地址":"金城鎮金水里西海路一段250號","英文name":"KINMEN","設站日期":"2004\/01\/01"}
,
{"name":"東吉島","id":"46730","lng":119.667467,"lat":23.256950,"海拔高度":"43.0m","縣市":"澎湖縣","地址":"望安鄉東吉村156號","英文name":"DONGJIDAO","設站日期":"1962\/01\/01"}
,
{"name":"澎湖","id":"46735","lng":119.563094,"lat":23.565503,"海拔高度":"10.7m","縣市":"澎湖縣","地址":"馬公市新興路2號","英文name":"PENGHU","設站日期":"1896\/01\/01"}
,
{"name":"臺南","id":"46741","lng":120.204772,"lat":22.993239,"海拔高度":"40.8m","縣市":"臺南市","地址":"中西區公園路21號","英文name":"TAINAN","設站日期":"1897\/01\/01"}
,
{"name":"永康","id":"46742","lng":120.236700,"lat":23.038386,"海拔高度":"8.1m","縣市":"臺南市","地址":"永康區鹽行里正南五街520巷88號","英文name":"YONGKANG","設站日期":"1947\/06\/01"}
,
{"name":"高雄","id":"46744","lng":120.315733,"lat":22.565992,"海拔高度":"2.3m","縣市":"高雄市","地址":"前鎮區明孝里26鄰漁港南二路2號","英文name":"KAOHSIUNG","設站日期":"1931\/01\/01"}
,
{"name":"嘉義","id":"46748","lng":120.432906,"lat":23.495925,"海拔高度":"26.9m","縣市":"嘉義市","地址":"西區北新里海口寮路56號","英文name":"CHIAYI","設站日期":"1968\/09\/01"}
,
{"name":"臺中","id":"46749","lng":120.684075,"lat":24.145736,"海拔高度":"84.04m","縣市":"臺中市","地址":"北區精武路295號","英文name":"TAICHUNG","設站日期":"1896\/01\/01"}
,
{"name":"阿里山","id":"46753","lng":120.813242,"lat":23.508208,"海拔高度":"2413.4m","縣市":"嘉義縣","地址":"阿里山鄉中正村4鄰東阿里山73-1號","英文name":"ALISHAN","設站日期":"1933\/01\/01"}
,
{"name":"大武","id":"46754","lng":120.903789,"lat":22.355675,"海拔高度":"8.1m","縣市":"臺東縣","地址":"大武鄉大武街115號","英文name":"DAWU","設站日期":"1939\/01\/01"}
,
{"name":"玉山","id":"46755","lng":120.959522,"lat":23.487614,"海拔高度":"3844.8m","縣市":"南投縣","地址":"信義鄉玉山北峰1號","英文name":"YUSHAN","設站日期":"1943\/01\/01"}
,
{"name":"新竹","id":"46757","lng":121.014219,"lat":24.827853,"海拔高度":"26.9m","縣市":"新竹縣","地址":"竹北市北崙里3鄰光明五街60號","英文name":"HSINCHU","設站日期":"1991\/07\/01"}
,
{"name":"恆春","id":"46759","lng":120.746339,"lat":22.003897,"海拔高度":"22.1m","縣市":"屏東縣","地址":"恆春鎮天文路50號","英文name":"HENGCHUN","設站日期":"1896\/01\/01"}
,
{"name":"成功","id":"46761","lng":121.373428,"lat":23.097486,"海拔高度":"33.5m","縣市":"臺東縣","地址":"成功鎮公民路84號","英文name":"CHENGGONG","設站日期":"1940\/01\/01"}
,
{"name":"蘭嶼","id":"46762","lng":121.558339,"lat":22.036969,"海拔高度":"324.0m","縣市":"臺東縣","地址":"蘭嶼鄉紅頭村2號","英文name":"LANYU","設站日期":"1941\/01\/01"}
,
{"name":"日月潭","id":"46765","lng":120.908050,"lat":23.881325,"海拔高度":"1017.5m","縣市":"南投縣","地址":"魚池鄉水社村中山路270巷14號","英文name":"SUN MOON LAKE","設站日期":"1940\/01\/01"}
,
{"name":"臺東","id":"46766","lng":121.154586,"lat":22.752211,"海拔高度":"9.0m","縣市":"臺東縣","地址":"臺東市大同路106號","英文name":"TAITUNG","設站日期":"1901\/01\/01"}
,
{"name":"梧棲","id":"46777","lng":120.523381,"lat":24.256003,"海拔高度":"31.73m","縣市":"臺中市","地址":"梧棲區臺灣大道十段2號海港大樓6樓","英文name":"WUQI","設站日期":"1976\/11\/01"}
,
{"name":"馬祖","id":"46799","lng":119.923419,"lat":26.169269,"海拔高度":"97.842m","縣市":"連江縣","地址":"南竿鄉四維村6鄰88號","英文name":"MATSU","設站日期":"2004\/01\/01"}
,
{"name":"山佳","id":"C0A52","lng":121.402008,"lat":24.974944,"海拔高度":"48m","縣市":"新北市","地址":"樹林區中山路3段5號(山佳國民小學校園內)","英文name":"Shanjia","設站日期":"1987\/05\/01"}
,
{"name":"坪林","id":"C0A53","lng":121.709378,"lat":24.938203,"海拔高度":"300m","縣市":"新北市","地址":"坪林區","英文name":"Pinglin","設站日期":"1987\/05\/01"}
,
{"name":"四堵","id":"C0A54","lng":121.745894,"lat":24.892761,"海拔高度":"401m","縣市":"新北市","地址":"坪林區碧湖(北宜路旁之碧湖橋道路上行約10分鐘)","英文name":"Sihdu","設站日期":"1987\/05\/01"}
,
{"name":"泰平","id":"C0A55","lng":121.823711,"lat":24.971197,"海拔高度":"460m","縣市":"新北市","地址":"雙溪區泰平里8鄰大平路43號(泰平國小分校附近)","英文name":"Taiping","設站日期":"1987\/05\/01"}
,
{"name":"福山","id":"C0A56","lng":121.502811,"lat":24.776203,"海拔高度":"405m","縣市":"新北市","地址":"烏來區福山里李茂岸八號(福山國小旁)","英文name":"Fushan","設站日期":"1987\/05\/01"}
,
{"name":"桶後","id":"C0A57","lng":121.597992,"lat":24.848222,"海拔高度":"360m","縣市":"新北市","地址":"烏來區后桶街49號孝義里5-6k處路旁","英文name":"Tonghou","設站日期":"1987\/05\/01"}
,
{"name":"屈尺","id":"C0A58","lng":121.546333,"lat":24.922422,"海拔高度":"70m","縣市":"新北市","地址":"新店區屈尺里10鄰屈尺路55號(屈尺國民小學國小校園內)","英文name":"Cyuchih","設站日期":"1987\/05\/01"}
,
{"name":"石碇","id":"C0A64","lng":121.662931,"lat":24.993858,"海拔高度":"241m","縣市":"新北市","地址":"石碇區湳窟34號附近","英文name":"Shihding","設站日期":"2009\/12\/01"}
,
{"name":"火燒寮","id":"C0A65","lng":121.742892,"lat":25.002719,"海拔高度":"287m","縣市":"新北市","地址":"平溪區東勢里","英文name":"Huoshaoliao","設站日期":"2009\/12\/01"}
,
{"name":"瑞芳","id":"C0A66","lng":121.801147,"lat":25.113169,"海拔高度":"97m","縣市":"新北市","地址":"瑞芳區22403龍山里逢甲路360號(義方國民小學校園內)","英文name":"Rueifang","設站日期":"2009\/12\/01"}
,
{"name":"大坪","id":"C0A86","lng":121.632969,"lat":25.165914,"海拔高度":"362m","縣市":"新北市","地址":"萬里區溪底里香員林6-3號","英文name":"Daping","設站日期":"1993\/06\/04"}
,
{"name":"五指山","id":"C0A87","lng":121.608692,"lat":25.132153,"海拔高度":"685m","縣市":"新北市","地址":"汐止區國軍示範公墓旁之復興廣播電台門口外","英文name":"Wujhihshan","設站日期":"1993\/08\/20"}
,
{"name":"福隆","id":"C0A88","lng":121.942083,"lat":25.017842,"海拔高度":"6m","縣市":"新北市","地址":"貢寮區東北角海岸國家風景管理處之福隆遊客中心後方","英文name":"Fulong","設站日期":"1993\/06\/30"}
,
{"name":"雙溪","id":"C0A89","lng":121.864242,"lat":25.036003,"海拔高度":"40m","縣市":"新北市","地址":"雙溪區雙溪里社區活動中心旁花圃內","英文name":"Shuangsi","設站日期":"1993\/06\/30"}
,
{"name":"富貴角","id":"C0A92","lng":121.565258,"lat":25.263783,"海拔高度":"196m","縣市":"新北市","地址":"石門區山溪里10鄰九芎林13號旁(石門國小山溪分班附近)","英文name":"Fugueijiao","設站日期":"1994\/10\/19"}
,
{"name":"三和","id":"C0A93","lng":121.595236,"lat":25.233153,"海拔高度":"216m","縣市":"新北市","地址":"金山區三和國小兩湖分校","英文name":"Sanhe","設站日期":"2014\/04\/01"}
,
{"name":"金山","id":"C0A94","lng":121.643967,"lat":25.223628,"海拔高度":"49m","縣市":"新北市","地址":"金山區中興段404地號(磺港社區活動中心內)","英文name":"Jinshan","設站日期":"1994\/08\/29"}
,
{"name":"鼻頭角","id":"C0A95","lng":121.923372,"lat":25.129036,"海拔高度":"118m","縣市":"新北市","地址":"瑞芳區鼻頭角燈塔旁","英文name":"Bitoujiao","設站日期":"1994\/08\/29"}
,
{"name":"三貂角","id":"C0A97","lng":122.002058,"lat":25.007606,"海拔高度":"116m","縣市":"新北市","地址":"貢寮區三貂角燈塔旁","英文name":"Sandiaojiao","設站日期":"1995\/06\/08"}
,
{"name":"社子","id":"C0A98","lng":121.469681,"lat":25.109508,"海拔高度":"54m","縣市":"臺北市","地址":"士林區延平北路9段212號(台北海洋技術學院內)","英文name":"Shezih","設站日期":"1997\/09\/01"}
,
{"name":"大直","id":"C0A9A","lng":121.542853,"lat":25.078047,"海拔高度":"49m","縣市":"臺北市","地址":"中山區北安路420號(大直高中內)","英文name":"Dazhi","設站日期":"1997\/09\/01"}
,
{"name":"石牌","id":"C0A9B","lng":121.513817,"lat":25.116342,"海拔高度":"7m","縣市":"臺北市","地址":"北投區石牌路1段139號(石牌國中內)","英文name":"Shipai","設站日期":"1997\/08\/16"}
,
{"name":"天母","id":"C0A9C","lng":121.537169,"lat":25.117494,"海拔高度":"35m","縣市":"臺北市","地址":"士林區天母東路116號(三玉國小內)","英文name":"Tianmu","設站日期":"1997\/08\/16"}
,
{"name":"士林","id":"C0A9E","lng":121.503019,"lat":25.090253,"海拔高度":"26m","縣市":"臺北市","地址":"士林區延平北路6段308號(社子國小內)","英文name":"Shihlin","設站日期":"1997\/08\/21"}
,
{"name":"內湖","id":"C0A9F","lng":121.575450,"lat":25.079422,"海拔高度":"35m","縣市":"臺北市","地址":"內湖區內湖路一段520號(內湖高工內)","英文name":"Neihu","設站日期":"1997\/08\/21"}
,
{"name":"南港","id":"C0A9G","lng":121.602906,"lat":25.055431,"海拔高度":"42m","縣市":"臺北市","地址":"南港區興南路62號(東新國小內)","英文name":"Nangang","設站日期":"1997\/08\/21"}
,
{"name":"三重","id":"C0A9I","lng":121.488492,"lat":25.056667,"海拔高度":"18m","縣市":"新北市","地址":"三重區集美街10號(集美國小校園內)","英文name":"Sanchong","設站日期":"2010\/10\/11"}
,
{"name":"大屯山","id":"C0AC4","lng":121.522408,"lat":25.175675,"海拔高度":"1079m","縣市":"臺北市","地址":"北投區湖田段461-6地號(民航局大屯山助航臺)","英文name":"Datunshan","設站日期":"2005\/11\/25"}
,
{"name":"三峽","id":"C0AC6","lng":121.369728,"lat":24.939025,"海拔高度":"55m","縣市":"新北市","地址":"三峽區復興路238號(三峽國中校園內)","英文name":"Sanshia","設站日期":"2009\/04\/09"}
,
{"name":"信義","id":"C0AC7","lng":121.564597,"lat":25.037822,"海拔高度":"71m","縣市":"臺北市","地址":"信義區市府路1號(台北市政府頂樓)","英文name":"Xinyi","設站日期":"2009\/03\/31"}
,
{"name":"文山","id":"C0AC8","lng":121.575728,"lat":25.002350,"海拔高度":"40m","縣市":"臺北市","地址":"文山區木柵路4段159巷14-1號(博嘉國小校園內)","英文name":"Wenshan","設站日期":"2009\/12\/01"}
,
{"name":"新莊","id":"C0ACA","lng":121.446756,"lat":25.051478,"海拔高度":"25m","縣市":"新北市","地址":"新莊區中和街193號(榮富國小校園內)","英文name":"Xinzhuang","設站日期":"2009\/12\/01"}
,
{"name":"三芝","id":"C0AD0","lng":121.501917,"lat":25.258131,"海拔高度":"86m","縣市":"新北市","地址":"三芝區育英路22號(三芝國小內)","英文name":"Sanzhi","設站日期":"2009\/08\/25"}
,
{"name":"八里","id":"C0AD1","lng":121.403947,"lat":25.150211,"海拔高度":"27m","縣市":"新北市","地址":"八里區中山路二段338號(八里國小內)","英文name":"Bali","設站日期":"2009\/08\/19"}
,
{"name":"深坑","id":"C0AD2","lng":121.617556,"lat":25.001381,"海拔高度":"57m","縣市":"新北市","地址":"深坑區文化街45號(深坑國小內)","英文name":"Shenkeng","設站日期":"2009\/08\/14"}
,
{"name":"蘆洲","id":"C0AD3","lng":121.472331,"lat":25.086594,"海拔高度":"20m","縣市":"新北市","地址":"蘆洲區三民路96號(三民高中內)","英文name":"Lujhou","設站日期":"2009\/09\/01"}
,
{"name":"土城","id":"C0AD4","lng":121.445169,"lat":24.973208,"海拔高度":"32m","縣市":"新北市","地址":"土城區金城路一段90號(新北市政府消防局土城分隊大樓樓頂)","英文name":"Tucheng","設站日期":"2009\/09\/05"}
,
{"name":"鶯歌","id":"C0AD5","lng":121.346294,"lat":24.951533,"海拔高度":"84m","縣市":"新北市","地址":"鶯歌區尖山埔路106號(鶯歌國小內)","英文name":"Yingge","設站日期":"2009\/09\/03"}
,
{"name":"清水","id":"C0F9P","lng":120.562242,"lat":24.312297,"海拔高度":"26m","縣市":"臺中市","地址":"清水區護岸路37號(高美國小)","英文name":"Qingshui","設站日期":"2011\/01\/31"}
,
{"name":"中和","id":"C0AG9","lng":121.490444,"lat":24.992647,"海拔高度":"25m","縣市":"新北市","地址":"中和區錦和路350號(錦和運動公園)","英文name":"Zhonghe","設站日期":"2011\/07\/23"}
,
{"name":"汐止","id":"C0AH0","lng":121.658778,"lat":25.066881,"海拔高度":"38m","縣市":"新北市","地址":"汐止區大同路二段394號(汐止國中)","英文name":"Xizhi","設站日期":"2011\/08\/08"}
,
{"name":"永和","id":"C0AH1","lng":121.508111,"lat":25.011250,"海拔高度":"30m","縣市":"新北市","地址":"永和區永平路205號(永平高中校園內)","英文name":"Yonghe","設站日期":"2013\/12\/24"}
,
{"name":"五分山","id":"C0AH3","lng":121.780794,"lat":25.071250,"海拔高度":"755m","縣市":"新北市","地址":"新北市瑞芳區靜安路四段1巷1號","英文name":"Wufengshan","設站日期":"2015\/10\/08"}
,
{"name":"平等","id":"C0AH4","lng":121.577086,"lat":25.129142,"海拔高度":"405m","縣市":"臺北市","地址":"士林區平菁街101號(平等國小)","英文name":"Pingdeng","設站日期":"2016\/06\/19"}
,
{"name":"林口","id":"C0AH5","lng":121.380840,"lat":25.072181,"海拔高度":"275m","縣市":"新北市","地址":"林口區仁愛路二段173號(林口高中內)","英文name":"Linkou","設站日期":"2017\/01\/04"}
,
{"name":"松山","id":"C0AH7","lng":121.550420,"lat":25.048710,"海拔高度":"34m","縣市":"臺北市","地址":"松山區敦化北路1號(臺北市松山運動中心)","英文name":"Songshan","設站日期":"2017\/04\/26"}
,
{"name":"復興","id":"C0C46","lng":121.352281,"lat":24.820208,"海拔高度":"482m","縣市":"桃園市","地址":"復興區澤仁里中正路248號(介壽國民中學校園內)","英文name":"Fuxing","設站日期":"2007\/10\/01"}
,
{"name":"桃園","id":"C0C48","lng":121.323172,"lat":24.992425,"海拔高度":"105m","縣市":"桃園市","地址":"桃園區成功路二段144號(桃園高級農工職業學校校園內)","英文name":"Taoyuan","設站日期":"2008\/01\/01"}
,
{"name":"八德","id":"C0C49","lng":121.283289,"lat":24.928708,"海拔高度":"157m","縣市":"桃園市","地址":"八德區興仁里中山路94號(八德國民小學校園內)","英文name":"Bade","設站日期":"2011\/12\/01"}
,
{"name":"中壢","id":"C0C52","lng":121.185253,"lat":24.967564,"海拔高度":"151m","縣市":"桃園市","地址":"中壢區五權里(中央大學校園內)","英文name":"Zhongli (NCU)","設站日期":"2007\/10\/01"}
,
{"name":"埔心","id":"C0C54","lng":121.225958,"lat":25.047750,"海拔高度":"70m","縣市":"桃園市","地址":"大園區埔心里25鄰埔心50號(埔心國民小學校園內)","英文name":"Pushin","設站日期":"2008\/01\/01"}
,
{"name":"觀音","id":"C0C59","lng":121.153317,"lat":25.027072,"海拔高度":"29m","縣市":"桃園市","地址":"觀音區廣福里10-42號(逸福農場)","英文name":"Guanyin","設站日期":"2007\/06\/21"}
,
{"name":"蘆竹","id":"C0C62","lng":121.265767,"lat":25.084275,"海拔高度":"19m","縣市":"桃園市","地址":"蘆竹區坑口里14鄰旁","英文name":"Luzhu","設站日期":"2011\/12\/01"}
,
{"name":"大溪","id":"C0C63","lng":121.265547,"lat":24.882853,"海拔高度":"209m","縣市":"桃園市","地址":"大溪區員林路2段450號(員樹林國小校園內)","英文name":"Dasi","設站日期":"2007\/10\/11"}
,
{"name":"平鎮","id":"C0C65","lng":121.214636,"lat":24.897503,"海拔高度":"208m","縣市":"桃園市","地址":"平鎮區中豐路山頂段375巷45號(山豐國民小學校園內)","英文name":"Pingjhen","設站日期":"2007\/10\/11"}
,
{"name":"楊梅","id":"C0C66","lng":121.143047,"lat":24.912375,"海拔高度":"176m","縣市":"桃園市","地址":"楊梅區金華街100號(楊心國小)","英文name":"Yangmei","設站日期":"2013\/06\/30"}
,
{"name":"龍潭","id":"C0C67","lng":121.221389,"lat":24.870056,"海拔高度":"250m","縣市":"桃園市","地址":"龍潭區中興路726號（龍潭消防分隊）","英文name":"Longtan","設站日期":"2014\/03\/17"}
,
{"name":"龜山","id":"C0C68","lng":121.386560,"lat":25.028460,"海拔高度":"228m","縣市":"桃園市","地址":"龜山區文化一路250號(國立體育大學田徑場)","英文name":"Guishan","設站日期":"2017\/3\/28"}
,
{"name":"梅花","id":"C0D36","lng":121.208558,"lat":24.678347,"海拔高度":"523m","縣市":"新竹縣","地址":"尖石鄉梅花村1鄰11號(梅花國小校園內)","英文name":"Meihua","設站日期":"1987\/06\/01"}
,
{"name":"關西","id":"C0D39","lng":121.173947,"lat":24.798228,"海拔高度":"146m","縣市":"新竹縣","地址":"關西鎮北斗里北門口41號(關西國中校園內)","英文name":"Guanxi","設站日期":"2008\/01\/01"}
,
{"name":"峨眉","id":"C0D43","lng":121.017189,"lat":24.690500,"海拔高度":"87m","縣市":"新竹縣","地址":"峨眉鄉31541峨眉村峨眉街54號(峨眉國中校園內)","英文name":"Emei","設站日期":"2011\/12\/01"}
,
{"name":"打鐵坑","id":"C0D48","lng":121.150789,"lat":24.849664,"海拔高度":"223m","縣市":"新竹縣","地址":"新埔鎮新北里8鄰大北坑28號旁","英文name":"Datiekeng","設站日期":"2008\/01\/01"}
,
{"name":"橫山","id":"C0D54","lng":121.116930,"lat":24.711160,"海拔高度":"227m","縣市":"新竹縣","地址":"橫山鄉橫山村橫山段426-6地號上","英文name":"Hengshan","設站日期":"2007\/03\/08"}
,
{"name":"雪霸","id":"C0D55","lng":121.116050,"lat":24.526972,"海拔高度":"1956m","縣市":"新竹縣","地址":"五峰鄉桃山村民石380號(雪霸農場內)","英文name":"Xueba","設站日期":"2007\/06\/23"}
,
{"name":"竹東","id":"C0D56","lng":121.057881,"lat":24.767147,"海拔高度":"147m","縣市":"新竹縣","地址":"竹東鎮二重國民小學校園內","英文name":"Zhudong","設站日期":"2008\/01\/01"}
,
{"name":"香山","id":"C0D57","lng":120.905456,"lat":24.746892,"海拔高度":"15m","縣市":"新竹市","地址":"香山區長興街路旁","英文name":"Siangshan","設站日期":"2007\/10\/12"}
,
{"name":"寶山","id":"C0D58","lng":121.025192,"lat":24.735006,"海拔高度":"120m","縣市":"新竹縣","地址":"寶山鄉新湖路280號旁","英文name":"Baoshan","設站日期":"2007\/10\/14"}
,
{"name":"新豐","id":"C0D59","lng":120.977210,"lat":24.870680,"海拔高度":"143m","縣市":"新竹縣","地址":"新豐鄉上坑村坑子口102-1號(小叮噹科學遊樂區內)","英文name":"Sinfong","設站日期":"2007\/10\/01"}
,
{"name":"湖口","id":"C0D65","lng":121.043628,"lat":24.904794,"海拔高度":"97m","縣市":"新竹縣","地址":"湖口鄉信勢村三鄰成功路109號(湖口消防分隊)","英文name":"Hukou","設站日期":"2013\/09\/10"}
,
{"name":"新竹市東區","id":"C0D66","lng":120.986947,"lat":24.798676,"海拔高度":"65m","縣市":"新竹市","地址":"東區光復路二段321號（工研院光復院區6館）","英文name":"Dongqu Hsinshu City","設站日期":"2014\/09\/29"}
,
{"name":"竹南","id":"C0E42","lng":120.888897,"lat":24.708978,"海拔高度":"19m","縣市":"苗栗縣","地址":"竹南鎮大埔里仁愛路1092號(竹南鎮大埔國民小學內)","英文name":"Jhunan","設站日期":"1987\/06\/01"}
,
{"name":"南庄","id":"C0E43","lng":121.000214,"lat":24.601775,"海拔高度":"258m","縣市":"苗栗縣","地址":"南庄鄉東村文化路3號(南庄國小校園內)","英文name":"Nanzhuang","設站日期":"1987\/06\/01"}
,
{"name":"大湖","id":"C0E52","lng":120.870870,"lat":24.414940,"海拔高度":"320m","縣市":"苗栗縣","地址":"大湖鄉大寮村5鄰竹高屋34-1號附近","英文name":"Dahu","設站日期":"2011\/11\/01"}
,
{"name":"三義","id":"C0E53","lng":120.765972,"lat":24.410933,"海拔高度":"341m","縣市":"苗栗縣","地址":"三義鄉廣盛村10鄰122號(三義高中內)","英文name":"Sanyi","設站日期":"1990\/07\/01"}
,
{"name":"後龍","id":"C0E54","lng":120.783933,"lat":24.606489,"海拔高度":"32m","縣市":"苗栗縣","地址":"後龍鎮後龍溪橋旁高地","英文name":"Houlong","設站日期":"2011\/11\/01"}
,
{"name":"明德","id":"C0E55","lng":120.885411,"lat":24.583486,"海拔高度":"84m","縣市":"苗栗縣","地址":"頭屋鄉明德水庫水利工作站屋頂上","英文name":"Mingde","設站日期":"2011\/11\/01"}
,
{"name":"通霄","id":"C0E59","lng":120.704622,"lat":24.471892,"海拔高度":"40m","縣市":"苗栗縣","地址":"通霄鎮城北里1鄰13號(通霄鎮城中國民小學內)","英文name":"Tongxiao","設站日期":"2011\/11\/01"}
,
{"name":"馬都安","id":"C0E61","lng":120.930192,"lat":24.451272,"海拔高度":"850m","縣市":"苗栗縣","地址":"泰安鄉錦水村(由泰安開車約2小時瞭望台旁)","英文name":"Madu-an","設站日期":"1990\/07\/01"}
,
{"name":"頭份","id":"C0E73","lng":120.912206,"lat":24.688247,"海拔高度":"26m","縣市":"苗栗縣","地址":"頭份市中正路219號(苗栗縣頭份鎮頭份國小校園內)","英文name":"Toufen","設站日期":"2007\/10\/11"}
,
{"name":"造橋","id":"C0E74","lng":120.864778,"lat":24.637056,"海拔高度":"27m","縣市":"苗栗縣","地址":"造橋鄉造橋村14鄰3號(造橋國小)","英文name":"Zaoqiao","設站日期":"2011\/01\/31"}
,
{"name":"苗栗","id":"C0E75","lng":120.824575,"lat":24.564569,"海拔高度":"62m","縣市":"苗栗縣","地址":"苗栗市中正路241號(建功國小)","英文name":"Miaoli","設站日期":"2011\/02\/21"}
,
{"name":"銅鑼","id":"C0E78","lng":120.790853,"lat":24.489681,"海拔高度":"160m","縣市":"苗栗縣","地址":"銅鑼鄉福興村文化街1號(銅鑼國小)","英文name":"Tongluo","設站日期":"2011\/03\/02"}
,
{"name":"卓蘭","id":"C0E79","lng":120.824753,"lat":24.312764,"海拔高度":"344m","縣市":"苗栗縣","地址":"卓蘭鎮中山路127號(卓蘭鎮公所)","英文name":"Zhuolan","設站日期":"2011\/01\/31"}
,
{"name":"西湖","id":"C0E81","lng":120.748500,"lat":24.562947,"海拔高度":"53m","縣市":"苗栗縣","地址":"西湖鄉二湖村2鄰22號(僑文國小)","英文name":"Xihu","設站日期":"2011\/04\/24"}
,
{"name":"獅潭","id":"C0E82","lng":120.920042,"lat":24.539133,"海拔高度":"220m","縣市":"苗栗縣","地址":"獅潭鄉新店村11鄰103-2號(獅潭鄉公所圖書館樓頂)","英文name":"Shitan","設站日期":"2011\/09\/22"}
,
{"name":"苑裡","id":"C0E83","lng":120.653053,"lat":24.439714,"海拔高度":"37m","縣市":"苗栗縣","地址":"苑裡鎮信義路1號(苑裡鎮公所)","英文name":"YUANLI","設站日期":"2013\/11\/06"}
,
{"name":"大河","id":"C0E85","lng":120.948578,"lat":24.618069,"海拔高度":"104m","縣市":"苗栗縣","地址":"三灣鄉大河村48號(大河派出所)","英文name":"Dahe","設站日期":"2015\/07\/23"}
,
{"name":"觀霧2","id":"C0E86","lng":121.113183,"lat":24.506006,"海拔高度":"2616m","縣市":"苗栗縣","地址":"苗栗縣南庄鄉","英文name":"Kuang-Wu2","設站日期":"2015\/11\/20"}
,
{"name":"大肚","id":"C0F00","lng":120.572117,"lat":24.152950,"海拔高度":"273m","縣市":"臺中市","地址":"大肚區瑞井里遊園路一段2號(臺中區監理所內)","英文name":"Dadu","設站日期":"2011\/11\/01"}
,
{"name":"雪山圈谷","id":"C0F0A","lng":121.236339,"lat":24.388594,"海拔高度":"3587m","縣市":"臺中市","地址":"和平區(往雪山主峰路上9.8公里處右邊)","英文name":"Xueshanjuangu","設站日期":"2016\/05\/18"}
,
{"name":"石岡","id":"C0F0B","lng":120.777644,"lat":24.276061,"海拔高度":"311m","縣市":"臺中市","地址":"石岡區石岡街6號 (臺中市石岡區衛生所)","英文name":"Shigang","設站日期":"2016\/09\/13"}
,
{"name":"中坑","id":"C0F0C","lng":120.903319,"lat":24.248517,"海拔高度":"983m","縣市":"臺中市","地址":"和平區中坑里中坑段39地號內","英文name":"Zhongkeng","設站日期":"2017\/05\/26"}
,
{"name":"東勢","id":"C0F85","lng":120.833047,"lat":24.246428,"海拔高度":"379m","縣市":"臺中市","地址":"東勢區東關路647號(東勢林區管理處雙崎工作站內)","英文name":"Dongshi","設站日期":"2011\/11\/01"}
,
{"name":"梨山","id":"C0F86","lng":121.243669,"lat":24.247522,"海拔高度":"2215m","縣市":"臺中市","地址":"和平區梨山里福壽路29號（福壽山農場）","英文name":"Lishan","設站日期":"2004\/07\/01"}
,
{"name":"埔中","id":"C1I28","lng":120.642594,"lat":23.820778,"海拔高度":"439m","縣市":"南投縣","地址":"名間鄉埔中村11之3號後面","英文name":"Puzhong","設站日期":"2002\/02\/28"}
,
{"name":"大甲","id":"C0F93","lng":120.640403,"lat":24.347667,"海拔高度":"100m","縣市":"臺中市","地址":"大甲區開元路71號(大甲高級工業職業學校內)","英文name":"Dajia","設站日期":"2011\/11\/01"}
,
{"name":"大坑","id":"C0F97","lng":120.722289,"lat":24.173142,"海拔高度":"145m","縣市":"臺中市","地址":"北屯區軍福十三路268號(東山消防分隊)","英文name":"Dakeng","設站日期":"2011\/11\/01"}
,
{"name":"中竹林","id":"C0F9A","lng":120.751061,"lat":24.103556,"海拔高度":"425m","縣市":"臺中市","地址":"太平區長龍路中埔二號橋至站址直線距離約1.7km","英文name":"Zhongzhulin","設站日期":"2011\/11\/01"}
,
{"name":"神岡","id":"C0F9I","lng":120.658314,"lat":24.272481,"海拔高度":"194m","縣市":"臺中市","地址":"神岡區三民路639號(圳堵國小校園南側大樓屋頂平台)","英文name":"Shengang","設站日期":"2011\/11\/01"}
,
{"name":"大安","id":"C0F9K","lng":120.588025,"lat":24.345061,"海拔高度":"30m","縣市":"臺中市","地址":"大安區中庄里中山南路296號(大安國小)","英文name":"Da-an","設站日期":"2011\/03\/07"}
,
{"name":"后里","id":"C0F9L","lng":120.729725,"lat":24.310436,"海拔高度":"253m","縣市":"臺中市","地址":"后里區甲后路110號(后里國小)","英文name":"Houli","設站日期":"2011\/03\/09"}
,
{"name":"豐原","id":"C0F9M","lng":120.720692,"lat":24.254322,"海拔高度":"230m","縣市":"臺中市","地址":"豐原區豐榮里12鄰新生北路155號(豐原國小)","英文name":"Fengyuan","設站日期":"2011\/04\/07"}
,
{"name":"大里","id":"C0F9N","lng":120.701378,"lat":24.092464,"海拔高度":"75m","縣市":"臺中市","地址":"大里區文化街120號(塗城國小)","英文name":"Dali","設站日期":"2011\/05\/26"}
,
{"name":"潭子","id":"C0F9O","lng":120.703933,"lat":24.213106,"海拔高度":"175m","縣市":"臺中市","地址":"潭子區中山路二段435號(潭子國小)","英文name":"Tanzi","設站日期":"2011\/03\/29"}
,
{"name":"外埔","id":"C0F9Q","lng":120.705686,"lat":24.347817,"海拔高度":"149m","縣市":"臺中市","地址":"外埔區土城里土城西路55號(安定國小)","英文name":"Waipu","設站日期":"2011\/04\/14"}
,
{"name":"龍井","id":"C0F9R","lng":120.528972,"lat":24.184536,"海拔高度":"20m","縣市":"臺中市","地址":"龍井區西里龍門路51號(龍井國小)","英文name":"Longjing","設站日期":"2011\/01\/31"}
,
{"name":"烏日","id":"C0F9S","lng":120.624103,"lat":24.107058,"海拔高度":"43m","縣市":"臺中市","地址":"烏日區中山路二段196號(烏日國小)","英文name":"Wuri","設站日期":"2011\/05\/26"}
,
{"name":"西屯","id":"C0F9T","lng":120.641275,"lat":24.179494,"海拔高度":"111m","縣市":"臺中市","地址":"西屯區西屯路二段300號(西屯國小)","英文name":"Xitun","設站日期":"2011\/05\/10"}
,
{"name":"南屯","id":"C0F9U","lng":120.637969,"lat":24.137006,"海拔高度":"74m","縣市":"臺中市","地址":"南屯區黎明路一段968號(南屯國小)","英文name":"Nantun","設站日期":"2011\/05\/19"}
,
{"name":"新社","id":"C0F9V","lng":120.815806,"lat":24.200172,"海拔高度":"525m","縣市":"臺中市","地址":"新社區大南里興中街46號(農委會種苗改良繁殖場)","英文name":"Xinshe","設站日期":"2011\/03\/02"}
,
{"name":"大雅(中科園區)","id":"C0F9X","lng":120.624450,"lat":24.215280,"海拔高度":"166m","縣市":"臺中市","地址":"大雅區中部科學工業園區臺中園區(汙水處理機房樓頂)","英文name":"Daya","設站日期":"2015\/07\/31"}
,
{"name":"桃山","id":"C0F9Y","lng":121.303808,"lat":24.432739,"海拔高度":"3313m","縣市":"臺中市","地址":"和平區(位於往桃山山屋叉路解說牌附近)","英文name":"Taoshan","設站日期":"2016\/04\/28"}
,
{"name":"雪山東峰","id":"C0F9Z","lng":121.268675,"lat":24.388792,"海拔高度":"3193m","縣市":"臺中市","地址":"和平區(位於雪山東峰直升機停機坪東南東方60公尺處)","英文name":"Xueshandongfeng","設站日期":"2016\/05\/18"}
,
{"name":"芬園","id":"C0G62","lng":120.621300,"lat":24.015678,"海拔高度":"110m","縣市":"彰化縣","地址":"芬園鄉楓坑村大埔崙產業道路上(芬園往臺灣民俗村路上)","英文name":"Fenyuan","設站日期":"2011\/11\/01"}
,
{"name":"鹿港","id":"C0G64","lng":120.430481,"lat":24.075300,"海拔高度":"17m","縣市":"彰化縣","地址":"鹿港鎮海埔里顏厝巷67號(行政院退輔會魚殖管理處彰化分場內)","英文name":"Lukang","設站日期":"1992\/05\/05"}
,
{"name":"員林","id":"C0G65","lng":120.585597,"lat":23.946503,"海拔高度":"34m","縣市":"彰化縣","地址":"員林市萬年里明倫路2號(明倫國中內)","英文name":"Yuanlin","設站日期":"1992\/05\/06"}
,
{"name":"溪湖","id":"C0G66","lng":120.479122,"lat":23.948350,"海拔高度":"27m","縣市":"彰化縣","地址":"溪湖鎮大竹里彰水路2段725號(湖南國民小學內)","英文name":"Xihu","設站日期":"2011\/11\/01"}
,
{"name":"溪州","id":"C0G72","lng":120.499093,"lat":23.851589,"海拔高度":"50m","縣市":"彰化縣","地址":"溪州鄉溪下路四段560號(溪州鄉公所)","英文name":"Xizhou","設站日期":"2015\/03\/12"}
,
{"name":"二林","id":"C0G73","lng":120.376081,"lat":23.903325,"海拔高度":"27m","縣市":"彰化縣","地址":"二林鎮仁愛路200號(二林消防分隊)","英文name":"Erlin","設站日期":"2015\/07\/01"}
,
{"name":"大城","id":"C0G74","lng":120.320935,"lat":23.852487,"海拔高度":"24m","縣市":"彰化縣","地址":"大城鄉東城村中平路185號(大城鄉公所)","英文name":"Dacheng","設站日期":"2015\/03\/09"}
,
{"name":"竹塘","id":"C0G75","lng":120.382486,"lat":23.846617,"海拔高度":"31m","縣市":"彰化縣","地址":"竹塘鄉永安村東陽路二段221號(永安派出所)","英文name":"Zhutang","設站日期":"2015\/03\/04"}
,
{"name":"福興","id":"C0G77","lng":120.437669,"lat":24.041289,"海拔高度":"15m","縣市":"彰化縣","地址":"福興鄉員鹿路二段270號(福興國中)","英文name":"Fuxing","設站日期":"2011\/06\/02"}
,
{"name":"秀水","id":"C0G78","lng":120.503869,"lat":24.034050,"海拔高度":"27m","縣市":"彰化縣","地址":"秀水鄉安東村中山路257號(秀水國小)","英文name":"Xiushui","設站日期":"2011\/08\/01"}
,
{"name":"花壇","id":"C0G79","lng":120.552328,"lat":24.016069,"海拔高度":"27m","縣市":"彰化縣","地址":"花壇鄉中庄村中橋街226號(華南國小)","英文name":"Huatan","設站日期":"2011\/04\/10"}
,
{"name":"埔鹽","id":"C0G80","lng":120.431683,"lat":24.000394,"海拔高度":"15m","縣市":"彰化縣","地址":"埔鹽鄉永樂村永樂路600號(永樂國小)","英文name":"Puyan","設站日期":"2011\/04\/12"}
,
{"name":"埔心","id":"C0G81","lng":120.525456,"lat":23.947633,"海拔高度":"26m","縣市":"彰化縣","地址":"埔心鄉舊館村員鹿路四段201號(舊館國小)","英文name":"Puxin","設站日期":"2011\/04\/27"}
,
{"name":"田尾","id":"C0G82","lng":120.509389,"lat":23.901669,"海拔高度":"29m","縣市":"彰化縣","地址":"田尾鄉中正路二段101號(仁豐國小)","英文name":"Tianwei","設站日期":"2011\/05\/05"}
,
{"name":"埤頭","id":"C0G83","lng":120.452806,"lat":23.866003,"海拔高度":"27m","縣市":"彰化縣","地址":"埤頭鄉大湖村大湖路260號(大湖國小)","英文name":"Pitou","設站日期":"2011\/05\/25"}
,
{"name":"北斗","id":"C0G84","lng":120.514222,"lat":23.877586,"海拔高度":"32m","縣市":"彰化縣","地址":"北斗鎮斗苑路二段150號(螺陽國小)","英文name":"Beidou","設站日期":"2011\/04\/01"}
,
{"name":"田中","id":"C0G85","lng":120.588261,"lat":23.856778,"海拔高度":"62m","縣市":"彰化縣","地址":"田中鎮中州路一段177號(田中國小)","英文name":"Tianzhong","設站日期":"2011\/08\/01"}
,
{"name":"社頭","id":"C0G86","lng":120.586200,"lat":23.897647,"海拔高度":"45m","縣市":"彰化縣","地址":"社頭鄉社斗路一段258號(社頭國小)","英文name":"Shetou","設站日期":"2011\/05\/25"}
,
{"name":"芳苑","id":"C0G87","lng":120.320025,"lat":23.922303,"海拔高度":"12m","縣市":"彰化縣","地址":"芳苑鄉仁愛村斗苑路芳苑段211號(芳苑國中)","英文name":"Fangyuan","設站日期":"2011\/07\/19"}
,
{"name":"二水","id":"C0G88","lng":120.617300,"lat":23.810742,"海拔高度":"92m","縣市":"彰化縣","地址":"二水鄉文化村119號(二水國小)","英文name":"Ershui","設站日期":"2011\/07\/28"}
,
{"name":"伸港","id":"C0G89","lng":120.484403,"lat":24.148933,"海拔高度":"24m","縣市":"彰化縣","地址":"伸港鄉新港村和平路60號(新港國小)","英文name":"Shenggang","設站日期":"2011\/02\/18"}
,
{"name":"埔里","id":"C0H89","lng":120.952425,"lat":23.972169,"海拔高度":"440m","縣市":"南投縣","地址":"埔里鎮大城里大城路169號(南投縣立大成國民中學內)","英文name":"Puli","設站日期":"2015\/09\/04"}
,
{"name":"中寮","id":"C0H95","lng":120.766406,"lat":23.884447,"海拔高度":"192m","縣市":"南投縣","地址":"中寮鄉復興村初中巷50號(中寮國中校園內)","英文name":"Zhongliao","設站日期":"2011\/11\/01"}
,
{"name":"草屯","id":"C0H96","lng":120.680850,"lat":23.973672,"海拔高度":"120m","縣市":"南投縣","地址":"草屯鎮中山里草鞋墩1街8號(草屯鎮公所樓頂)","英文name":"Caotun","設站日期":"2011\/11\/01"}
,
{"name":"昆陽","id":"C0H99","lng":121.273642,"lat":24.121322,"海拔高度":"3076m","縣市":"南投縣","地址":"仁愛鄉昆陽警察局後方下坡處(太魯閣國家公園)石碑後20公尺","英文name":"Kunyang","設站日期":"1992\/05\/23"}
,
{"name":"神木村","id":"C0H9A","lng":120.843667,"lat":23.532742,"海拔高度":"1595m","縣市":"南投縣","地址":"信義鄉神木村神木工作分站後方山坡上(對高岳營林區29林班地444號土地)","英文name":"Shenmu Village","設站日期":"1998\/12\/16"}
,
{"name":"合歡山","id":"C0H9C","lng":121.272547,"lat":24.143442,"海拔高度":"3402m","縣市":"南投縣","地址":"仁愛鄉(近合歡山三角點，由松雪樓開車約15分鐘，大甲溪事業區第81林班)","英文name":"Hehuan Mountain","設站日期":"2008\/02\/25"}
,
{"name":"廬山","id":"C0I01","lng":121.181808,"lat":24.033311,"海拔高度":"1562m","縣市":"南投縣","地址":"仁愛鄉大同村仁和路21號(埔里-霧社收費站-盧山電力公司瞭望台)","英文name":"Lushan","設站日期":"1992\/05\/12"}
,
{"name":"信義","id":"C0I08","lng":120.851036,"lat":23.689694,"海拔高度":"536m","縣市":"南投縣","地址":"信義鄉自強村綠美巷(內茅埔營林區23林班地)","英文name":"Xinyi","設站日期":"2015\/09\/22"}
,
{"name":"鳳凰","id":"C0I09","lng":120.787347,"lat":23.728081,"海拔高度":"910m","縣市":"南投縣","地址":"鹿谷鄉鳳凰鳥園旁","英文name":"Fonghuang","設站日期":"1992\/05\/05"}
,
{"name":"竹山","id":"C0I11","lng":120.688156,"lat":23.761225,"海拔高度":"161m","縣市":"南投縣","地址":"竹山鎮延和里向學街32號(竹山國民小學內)","英文name":"Zhushan","設站日期":"1992\/05\/05"}
,
{"name":"水里","id":"C0I36","lng":120.849792,"lat":23.812553,"海拔高度":"300m","縣市":"南投縣","地址":"水里鄉中山路一段515號(玉山國家公園管理處)","英文name":"Shuili","設站日期":"2015\/09\/23"}
,
{"name":"魚池","id":"C0I37","lng":120.941350,"lat":23.895703,"海拔高度":"671m","縣市":"南投縣","地址":"魚池鄉東池村魚池街194號(魚池鄉衛生所)","英文name":"Yuchi","設站日期":"2015\/09\/07"}
,
{"name":"集集","id":"C0I38","lng":120.801467,"lat":23.828206,"海拔高度":"258m","縣市":"南投縣","地址":"集集鎮民生東路1號(農委會特有生物研究保育中心)","英文name":"Jiji","設站日期":"2015\/09\/24"}
,
{"name":"仁愛","id":"C0I39","lng":121.132206,"lat":24.022122,"海拔高度":"1184m","縣市":"南投縣","地址":"仁愛鄉仁和路50號(台電公司仁愛服務所)","英文name":"Ren'ai","設站日期":"2015\/08\/10"}
,
{"name":"名間","id":"C0I41","lng":120.701447,"lat":23.837053,"海拔高度":"180m","縣市":"南投縣","地址":"名間鄉董門巷2號(名間鄉立體停車場)","英文name":"Mingjian","設站日期":"2015\/09\/30"}
,
{"name":"國姓","id":"C0I42","lng":120.855072,"lat":24.037803,"海拔高度":"305m","縣市":"南投縣","地址":"國姓鄉民族街40號(國姓鄉老人文康活動中心)","英文name":"Guoxing","設站日期":"2015\/09\/02"}
,
{"name":"南投","id":"C0I46","lng":120.679183,"lat":23.913208,"海拔高度":"110m","縣市":"南投縣","地址":"南投市龍泉里玉井街5號(南投市公所樓頂)","英文name":"Nantou","設站日期":"2015\/09\/03"}
,
{"name":"梅峰","id":"C0I48","lng":121.173572,"lat":24.085272,"海拔高度":"2165m","縣市":"南投縣","地址":"仁愛鄉大同村仁和路215號(梅峰農場)","英文name":"Meifeng","設站日期":"2015\/10\/06"}
,
{"name":"萬大林道","id":"C0I49","lng":121.091411,"lat":23.928228,"海拔高度":"1601m","縣市":"南投縣","地址":"仁愛鄉曲冰段(萬大林道約7.2k附近高地)","英文name":"Wandalindao","設站日期":"2015\/10\/07"}
,
{"name":"玉山風口","id":"C0I52","lng":120.955994,"lat":23.470489,"海拔高度":"3860m","縣市":"南投縣","地址":"信義鄉(玉山主峰往北峰叉路空地附近)","英文name":"Yushanfengkou","設站日期":"2016\/05\/22"}
,
{"name":"草嶺","id":"C0K24","lng":120.693461,"lat":23.595550,"海拔高度":"1132m","縣市":"雲林縣","地址":"古坑鄉草嶺村龍頭","英文name":"Caoling","設站日期":"1992\/05\/17"}
,
{"name":"崙背","id":"C0K25","lng":120.318925,"lat":23.755550,"海拔高度":"59m","縣市":"雲林縣","地址":"崙背鄉阿勸村阿勸農場(阿勸段487號)","英文name":"Lunbei","設站日期":"2015\/06\/08"}
,
{"name":"四湖","id":"C0K28","lng":120.227125,"lat":23.630414,"海拔高度":"23m","縣市":"雲林縣","地址":"四湖鄉湖西村中正路766號(四湖國民中學內)","英文name":"Sihu","設站日期":"1992\/12\/05"}
,
{"name":"宜梧","id":"C0K29","lng":120.169329,"lat":23.536281,"海拔高度":"8m","縣市":"雲林縣","地址":"口湖鄉湖口村170號央廣口湖分台內(憲兵排樓頂)","英文name":"Yiwu","設站日期":"2010\/09\/27"}
,
{"name":"虎尾","id":"C0K33","lng":120.442036,"lat":23.719183,"海拔高度":"38m","縣市":"雲林縣","地址":"虎尾鎮林森路一段64號(中正國民小學內)","英文name":"Huwei","設站日期":"1992\/12\/12"}
,
{"name":"土庫","id":"C0K39","lng":120.395574,"lat":23.679029,"海拔高度":"31m","縣市":"雲林縣","地址":"土庫鎮建國路41號(土庫消防分隊)","英文name":"Tuku","設站日期":"2015\/05\/07"}
,
{"name":"斗六","id":"C0K40","lng":120.541127,"lat":23.720583,"海拔高度":"65m","縣市":"雲林縣","地址":"斗六市鎮北路345-1號(斗六消防分隊)","英文name":"Douliu","設站日期":"2015\/03\/10"}
,
{"name":"北港","id":"C0K41","lng":120.292802,"lat":23.573957,"海拔高度":"20m","縣市":"雲林縣","地址":"北港鎮大同路565號(北港消防分隊)","英文name":"Beigang","設站日期":"2015\/03\/23"}
,
{"name":"西螺","id":"C0K42","lng":120.467394,"lat":23.800407,"海拔高度":"42m","縣市":"雲林縣","地址":"西螺鎮公正路211號(西螺消防分隊)","英文name":"Xiluo","設站日期":"2015\/05\/06"}
,
{"name":"褒忠","id":"C0K43","lng":120.303634,"lat":23.690938,"海拔高度":"30m","縣市":"雲林縣","地址":"褒忠鄉中正路451號(褒忠鄉公所)","英文name":"Baozhong","設站日期":"2015\/04\/29"}
,
{"name":"二崙","id":"C0K44","lng":120.408944,"lat":23.772797,"海拔高度":"35m","縣市":"雲林縣","地址":"雲林縣二崙鄉中正路80號(二崙消防分隊)","英文name":"Erlun","設站日期":"2015\/04\/30"}
,
{"name":"大埤","id":"C0K45","lng":120.431537,"lat":23.646074,"海拔高度":"35m","縣市":"雲林縣","地址":"大埤鄉中山路8號(大埤鄉公所)","英文name":"Dapi","設站日期":"2015\/02\/13"}
,
{"name":"斗南","id":"C0K46","lng":120.478359,"lat":23.678734,"海拔高度":"60m","縣市":"雲林縣","地址":"雲林縣斗南鎮延平路二段266號(斗南鎮停一立體停車場)","英文name":"Dounan","設站日期":"2015\/03\/11"}
,
{"name":"林內","id":"C0K47","lng":120.609642,"lat":23.748675,"海拔高度":"97m","縣市":"雲林縣","地址":"林內鄉中正路685號(林內消防分隊)","英文name":"Linnei","設站日期":"2015\/03\/06"}
,
{"name":"莿桐","id":"C0K48","lng":120.502372,"lat":23.761192,"海拔高度":"56m","縣市":"雲林縣","地址":"莿桐鄉和平路53號(莿桐鄉公所)","英文name":"Citong","設站日期":"2015\/03\/18"}
,
{"name":"古坑","id":"C0K49","lng":120.559754,"lat":23.654301,"海拔高度":"91m","縣市":"雲林縣","地址":"古坑鄉中山路393號(古坑消防分隊)","英文name":"Gukeng","設站日期":"2015\/03\/04"}
,
{"name":"元長","id":"C0K50","lng":120.315024,"lat":23.649810,"海拔高度":"12m","縣市":"雲林縣","地址":"元長鄉長南村仁愛街2號(元長鄉公所)","英文name":"Yuanchang","設站日期":"2015\/03\/20"}
,
{"name":"水林","id":"C0K51","lng":120.245970,"lat":23.572924,"海拔高度":"10m","縣市":"雲林縣","地址":"水林鄉水北村水林路12號(水林鄉公所)","英文name":"Shuilin","設站日期":"2015\/03\/19"}
,
{"name":"雲林東勢","id":"C0K52","lng":120.154778,"lat":23.674449,"海拔高度":"10m","縣市":"雲林縣","地址":"東勢鄉東南村所前街3號(東勢鄉公所)","英文name":"Dongshi Yunlin County","設站日期":"2015\/03\/13"}
,
{"name":"臺西","id":"C0K53","lng":120.197559,"lat":23.701547,"海拔高度":"12m","縣市":"雲林縣","地址":"台西鄉中山路110巷38號(臺西消防分隊)","英文name":"Taixi","設站日期":"2015\/03\/28"}
,
{"name":"蔦松","id":"C0K55","lng":120.229736,"lat":23.514319,"海拔高度":"15m","縣市":"雲林縣","地址":"水林鄉松中村蔦松路213號(蔦松國小)","英文name":"Niaosong","設站日期":"2015\/10\/26"}
,
{"name":"棋山","id":"C0K56","lng":120.603417,"lat":23.686450,"海拔高度":"117m","縣市":"雲林縣","地址":"古坑鄉棋盤村棋山49號(棋山國小)","英文name":"Qishan","設站日期":"2015\/10\/22"}
,
{"name":"馬頭山","id":"C0M41","lng":120.582017,"lat":23.324361,"海拔高度":"245m","縣市":"嘉義縣","地址":"大埔鄉永樂村1鄰內灣仔2號","英文name":"Matoushan","設站日期":"1988\/10\/07"}
,
{"name":"東後寮","id":"C0M52","lng":120.248065,"lat":23.369908,"海拔高度":"15m","縣市":"嘉義縣","地址":"義竹鄉東光村7號(台糖東後寮農場)","英文name":"Donghouliao","設站日期":"2015\/07\/03"}
,
{"name":"奮起湖","id":"C0M53","lng":120.699253,"lat":23.493903,"海拔高度":"1385m","縣市":"嘉義縣","地址":"竹崎鄉阿里山事業區148林班地(中興苗圃內)","英文name":"Fenqihu","設站日期":"1992\/12\/05"}
,
{"name":"中埔","id":"C0M64","lng":120.522900,"lat":23.425380,"海拔高度":"155m","縣市":"嘉義縣","地址":"中埔鄉中埔村128號(中埔鄉公所)","英文name":"Zhongpu","設站日期":"2015\/04\/20"}
,
{"name":"朴子","id":"C0M65","lng":120.239020,"lat":23.434630,"海拔高度":"20m","縣市":"嘉義縣","地址":"朴子市竹村里36號(竹村國小)","英文name":"Puzi","設站日期":"2015\/03\/26"}
,
{"name":"溪口","id":"C0M66","lng":120.403569,"lat":23.604131,"海拔高度":"40m","縣市":"嘉義縣","地址":"溪口鄉中正東路103號(溪口國中學生活動中心)","英文name":"Xikou","設站日期":"2015\/04\/29"}
,
{"name":"大林","id":"C0M67","lng":120.458410,"lat":23.600616,"海拔高度":"43m","縣市":"嘉義縣","地址":"大林鎮新興街110號(大林地政事務所)","英文name":"Dalin","設站日期":"2015\/04\/24"}
,
{"name":"太保","id":"C0M68","lng":120.331455,"lat":23.455062,"海拔高度":"37m","縣市":"嘉義縣","地址":"太保市太保里31號(太保市圖書館)","英文name":"Taibao","設站日期":"2015\/03\/25"}
,
{"name":"水上","id":"C0M69","lng":120.388909,"lat":23.419734,"海拔高度":"33m","縣市":"嘉義縣","地址":"水上鄉三鎮村三鎮路119號(水上消防分隊)","英文name":"Shuishang","設站日期":"2015\/04\/14"}
,
{"name":"竹崎","id":"C0M70","lng":120.555508,"lat":23.526178,"海拔高度":"150m","縣市":"嘉義縣","地址":"竹崎鄉竹崎村舊車站79號(竹崎消防分隊)","英文name":"Zhuqi","設站日期":"2015\/04\/16"}
,
{"name":"東石","id":"C0M71","lng":120.153850,"lat":23.458927,"海拔高度":"15m","縣市":"嘉義縣","地址":"東石鄉東石村3號(東石鄉公所)","英文name":"Dongshi","設站日期":"2015\/04\/20"}
,
{"name":"番路","id":"C0M72","lng":120.554156,"lat":23.464657,"海拔高度":"225m","縣市":"嘉義縣","地址":"番路鄉下坑村蔡公店101號(番路鄉公所)","英文name":"Fanlu","設站日期":"2015\/04\/23"}
,
{"name":"嘉義市東區","id":"C0M73","lng":120.460531,"lat":23.457673,"海拔高度":"40m","縣市":"嘉義市","地址":"親水路123 號(第五河川局水情中心)","英文name":"Dongqu Chiayi City","設站日期":"2015\/04\/13"}
,
{"name":"六腳","id":"C0M74","lng":120.290625,"lat":23.492871,"海拔高度":"15m","縣市":"嘉義縣","地址":"六腳鄉蒜頭村73-2號(六腳消防分隊)","英文name":"Liujiao","設站日期":"2015\/03\/28"}
,
{"name":"布袋","id":"C0M75","lng":120.167789,"lat":23.380878,"海拔高度":"10m","縣市":"嘉義縣","地址":"布袋鎮龍江里2-2號(布袋消防分隊)","英文name":"Budai","設站日期":"2015\/03\/24"}
,
{"name":"民雄","id":"C0M76","lng":120.428457,"lat":23.551754,"海拔高度":"40m","縣市":"嘉義縣","地址":"民雄鄉文化路7號(民雄鄉公所)","英文name":"Minxiong","設站日期":"2015\/03\/17"}
,
{"name":"嘉義梅山","id":"C0M77","lng":120.555587,"lat":23.585398,"海拔高度":"164m","縣市":"嘉義縣","地址":"梅山鄉中山路282號(梅山鄉公所)","英文name":"Meishan Chiayi County","設站日期":"2015\/03\/03"}
,
{"name":"鹿草","id":"C0M78","lng":120.308350,"lat":23.411340,"海拔高度":"30m","縣市":"嘉義縣","地址":"鹿草鄉西井村287號(鹿草鄉公所)","英文name":"Lucao","設站日期":"2015\/03\/27"}
,
{"name":"新港","id":"C0M79","lng":120.345728,"lat":23.553269,"海拔高度":"15m","縣市":"嘉義縣","地址":"新港鄉公園路28號(新港消防分隊)","英文name":"Xingang","設站日期":"2015\/03\/27"}
,
{"name":"茶山","id":"C0M80","lng":120.664767,"lat":23.299075,"海拔高度":"440m","縣市":"嘉義縣","地址":"阿里山鄉茶山路62號之1(茶山村衛生室)","英文name":"Chashan","設站日期":"2015\/11\/03"}
,
{"name":"里佳","id":"C0M81","lng":120.716647,"lat":23.389125,"海拔高度":"1354m","縣市":"嘉義縣","地址":"阿里山鄉里佳村","英文name":"Lijia","設站日期":"2015\/11\/11"}
,
{"name":"達邦","id":"C0M82","lng":120.749517,"lat":23.453994,"海拔高度":"980m","縣市":"嘉義縣","地址":"阿里山鄉達邦村21號(鄒族自然與文化中心)","英文name":"Dabang","設站日期":"2015\/11\/04"}
,
{"name":"山美","id":"C0M83","lng":120.668217,"lat":23.383803,"海拔高度":"540m","縣市":"嘉義縣","地址":"阿里山鄉山美村(原阿里山鄉農會山美辦事處)","英文name":"Shanmei","設站日期":"2015\/11\/02"}
,
{"name":"曾文","id":"C0O81","lng":120.497328,"lat":23.219681,"海拔高度":"161m","縣市":"臺南市","地址":"楠西區曾文新村(曾文水庫管理局內)","英文name":"Cengwen","設站日期":"1998\/10\/08"}
,
{"name":"北寮","id":"C0O83","lng":120.495008,"lat":23.079561,"海拔高度":"127m","縣市":"臺南市","地址":"南化區北寮里48-4號","英文name":"Beiliao","設站日期":"2013\/04\/18"}
,
{"name":"王爺宮","id":"C0O84","lng":120.399511,"lat":23.221333,"海拔高度":"144m","縣市":"臺南市","地址":"六甲區王爺里24號（六甲國小湖東分校）","英文name":"Wangyegong","設站日期":"2013\/12\/01"}
,
{"name":"大內","id":"C0O86","lng":120.360830,"lat":23.118850,"海拔高度":"38m","縣市":"臺南市","地址":"大內區74201大內里63號(大內國民小學)","英文name":"Danei","設站日期":"2013\/08\/01"}
,
{"name":"善化","id":"C0O90","lng":120.297219,"lat":23.112883,"海拔高度":"9m","縣市":"臺南市","地址":"善化區益民寮60號(亞洲蔬菜研究發展中心內)","英文name":"Shanhua","設站日期":"1988\/10\/07"}
,
{"name":"玉井","id":"C0O93","lng":120.460550,"lat":23.126042,"海拔高度":"69m","縣市":"臺南市","地址":"玉井區台灣糖業公司玉井糖廠","英文name":"Yujing","設站日期":"1988\/10\/07"}
,
{"name":"安南","id":"C0O95","lng":120.144861,"lat":23.076694,"海拔高度":"4m","縣市":"臺南市","地址":"安南區公學路6段589號(學東國民小學內)","英文name":"Annan","設站日期":"2013\/08\/01"}
,
{"name":"崎頂","id":"C0O96","lng":120.369317,"lat":22.959547,"海拔高度":"112m","縣市":"臺南市","地址":"龍崎區中坑里5鄰13號","英文name":"Qiding","設站日期":"2013\/04\/18"}
,
{"name":"虎頭埤","id":"C0O97","lng":120.347878,"lat":23.021375,"海拔高度":"71m","縣市":"臺南市","地址":"新化區口埤18號(新化分場)","英文name":"Hutoupi","設站日期":"2013\/08\/01"}
,
{"name":"新市","id":"C0O98","lng":120.298197,"lat":23.061614,"海拔高度":"18m","縣市":"臺南市","地址":"新市區永就里53號(番子寮農場)","英文name":"Xinshi","設站日期":"2013\/08\/01"}
,
{"name":"媽廟","id":"C0O99","lng":120.293525,"lat":22.991750,"海拔高度":"18m","縣市":"臺南市","地址":"歸仁區中正北路3段60號(保西國民小學內)","英文name":"Mamiao","設站日期":"2013\/12\/01"}
,
{"name":"尾寮山","id":"C0R10","lng":120.683889,"lat":22.833111,"海拔高度":"1006m","縣市":"屏東縣","地址":"三地門鄉口社檢查站車程約2小時(尾寮山瞭望台旁)","英文name":"Weiliaoshan","設站日期":"1992\/01\/22"}
,
{"name":"阿禮","id":"C0R13","lng":120.743678,"lat":22.742908,"海拔高度":"1040m","縣市":"屏東縣","地址":"霧台鄉(屏東事業區第46林班)由山地文化村開車約2小時需徒步轉波站前面","英文name":"Ali","設站日期":"2013\/08\/01"}
,
{"name":"瑪家","id":"C0R14","lng":120.686639,"lat":22.682903,"海拔高度":"740m","縣市":"屏東縣","地址":"瑪家鄉瑪家村4鄰24號(後山)","英文name":"Majia","設站日期":"2013\/08\/01"}
,
{"name":"三地門","id":"C0R15","lng":120.639944,"lat":22.709889,"海拔高度":"105m","縣市":"屏東縣","地址":"內埔鄉水門村成功路83號(國立內埔高級農工職業學校內)","英文name":"Sandimen","設站日期":"1992\/01\/22"}
,
{"name":"鹽埔新圍","id":"C0R16","lng":120.530778,"lat":22.739558,"海拔高度":"45m","縣市":"屏東縣","地址":"鹽埔鄉彭厝國民小學校園","英文name":"yanpuxinwei","設站日期":"2013\/12\/01"}
,
{"name":"屏東","id":"C0R17","lng":120.494072,"lat":22.660269,"海拔高度":"26m","縣市":"屏東縣","地址":"屏東市復興路245號(台灣糖業公司屏東區處場區內)","英文name":"Pingdong","設站日期":"2013\/12\/01"}
,
{"name":"赤山","id":"C0R19","lng":120.614306,"lat":22.592333,"海拔高度":"32m","縣市":"屏東縣","地址":"萬巒鄉建興路40號（赤山國小）","英文name":"Chishan","設站日期":"2013\/12\/01"}
,
{"name":"潮州","id":"C0R22","lng":120.540000,"lat":22.534361,"海拔高度":"23m","縣市":"屏東縣","地址":"潮州鎮光春路290號(屏東縣立光春國民中學內)","英文name":"Chaojhou","設站日期":"1992\/01\/22"}
,
{"name":"來義","id":"C0R24","lng":120.625111,"lat":22.527306,"海拔高度":"87m","縣市":"屏東縣","地址":"萬巒鄉新隆路64號萬巒農場（佳佐段180號）","英文name":"Laiyi","設站日期":"2013\/12\/01"}
,
{"name":"春日","id":"C0R26","lng":120.628306,"lat":22.370361,"海拔高度":"76m","縣市":"屏東縣","地址":"春日鄉春日國民小學內","英文name":"Chunri","設站日期":"2013\/12\/01"}
,
{"name":"琉球嶼","id":"C0R27","lng":120.362236,"lat":22.332244,"海拔高度":"51m","縣市":"屏東縣","地址":"琉球鄉天台段596及597地號","英文name":"Liouciouyu","設站日期":"1996\/08\/30"}
,
{"name":"檳榔","id":"C0R28","lng":120.836777,"lat":22.076078,"海拔高度":"242m","縣市":"屏東縣","地址":"滿州鄉長樂村大公路14號(往南仁山方向)","英文name":"Binlang","設站日期":"1997\/06\/13"}
,
{"name":"貓鼻頭","id":"C0R35","lng":120.735800,"lat":21.921774,"海拔高度":"35m","縣市":"屏東縣","地址":"恆春鎮(貓鼻頭風景區內)","英文name":"Maobitou","設站日期":"1997\/06\/01"}
,
{"name":"墾丁","id":"C0R36","lng":120.802239,"lat":21.945631,"海拔高度":"20m","縣市":"屏東縣","地址":"恆春鎮墾丁里牧場路1號(畜產試驗所恆春分所內)","英文name":"Kenting","設站日期":"1997\/06\/03"}
,
{"name":"佳樂水","id":"C0R37","lng":120.844567,"lat":21.991953,"海拔高度":"55m","縣市":"屏東縣","地址":"滿州鄉港口村茶山路14號(佳樂山林務局工作站內)","英文name":"Jialeshuei","設站日期":"1997\/05\/09"}
,
{"name":"枋寮","id":"C0R38","lng":120.589639,"lat":22.369425,"海拔高度":"2m","縣市":"屏東縣","地址":"枋寮鄉枋寮村德興路197號(枋寮國民小學操場旁)","英文name":"Fangliao","設站日期":"1997\/05\/07"}
,
{"name":"楓港","id":"C0R40","lng":120.692725,"lat":22.190197,"海拔高度":"15m","縣市":"屏東縣","地址":"枋山鄉善餘村光復路24號(楓港國民小學操場旁)","英文name":"Fongkung","設站日期":"1997\/05\/08"}
,
{"name":"牡丹池山","id":"C0R42","lng":120.840556,"lat":22.167792,"海拔高度":"504m","縣市":"屏東縣","地址":"牡丹鄉電信轉播臺旁步行約3分鐘(恆春事業區21林班地)","英文name":"Mudanchihshan","設站日期":"1999\/04\/13"}
,
{"name":"東港","id":"C0R43","lng":120.441692,"lat":22.464914,"海拔高度":"31m","縣市":"屏東縣","地址":"東港鎮豐漁街66號(國立東港高級海事水產職業學校)","英文name":"Donggang","設站日期":"2008\/11\/14"}
,
{"name":"高樹","id":"C0R47","lng":120.600806,"lat":22.826389,"海拔高度":"103m","縣市":"屏東縣","地址":"高樹鄉興中路329號(高樹鄉公所)","英文name":"Gaoshu","設站日期":"2013\/06\/14"}
,
{"name":"長治","id":"C0R48","lng":120.542622,"lat":22.693128,"海拔高度":"57m","縣市":"屏東縣","地址":"長治鄉德成村中興路572-1號(長治消防分隊)","英文name":"Changzhi","設站日期":"2013\/06\/07"}
,
{"name":"九如","id":"C0R49","lng":120.490503,"lat":22.740500,"海拔高度":"49m","縣市":"屏東縣","地址":"九如鄉九如路二段416號(九如鄉公所)","英文name":"Jiuru","設站日期":"2013\/06\/07"}
,
{"name":"竹田","id":"C0R50","lng":120.544008,"lat":22.584917,"海拔高度":"32m","縣市":"屏東縣","地址":"竹田鄉中正路123號(竹田鄉公所)","英文name":"Zhutian","設站日期":"2013\/05\/17"}
,
{"name":"萬丹","id":"C0R51","lng":120.490394,"lat":22.587775,"海拔高度":"31m","縣市":"屏東縣","地址":"萬丹鄉萬安村和平東路69號(萬丹消防分隊)","英文name":"WanDan","設站日期":"2013\/06\/16"}
,
{"name":"崁頂","id":"C0R52","lng":120.506914,"lat":22.514781,"海拔高度":"18m","縣市":"屏東縣","地址":"崁頂鄉崁頂村興農路20之10號(崁頂消防分隊)","英文name":"Kanding","設站日期":"2013\/06\/15"}
,
{"name":"林邊","id":"C0R53","lng":120.509983,"lat":22.430836,"海拔高度":"16m","縣市":"屏東縣","地址":"林邊鄉光林村和平路45號(林邊鄉衛生所)","英文name":"Linbian","設站日期":"2013\/06\/11"}
,
{"name":"佳冬","id":"C0R54","lng":120.552375,"lat":22.419456,"海拔高度":"17m","縣市":"屏東縣","地址":"佳冬鄉佳昌路2號(佳冬鄉公所)","英文name":"Jiadong","設站日期":"2013\/06\/11"}
,
{"name":"新埤","id":"C0R55","lng":120.582894,"lat":22.467947,"海拔高度":"38m","縣市":"屏東縣","地址":"新埤鄉民眾路103號(新埤消防分隊)","英文name":"Xinpi","設站日期":"2013\/05\/12"}
,
{"name":"新園","id":"C0R56","lng":120.461558,"lat":22.543400,"海拔高度":"22m","縣市":"屏東縣","地址":"新園鄉仙吉村店口路116號(新園消防分隊)","英文name":"Xinyuan","設站日期":"2013\/06\/12"}
,
{"name":"麟洛","id":"C0R57","lng":120.527190,"lat":22.650780,"海拔高度":"37m","縣市":"屏東縣","地址":"麟洛鄉中山路158號(麟洛鄉公所)","英文name":"Linluo","設站日期":"2013\/06\/19"}
,
{"name":"南州","id":"C0R58","lng":120.502740,"lat":22.485910,"海拔高度":"10m","縣市":"屏東縣","地址":"南州鄉溪南村人和路241號(南州消防分隊)","英文name":"Nanzhou","設站日期":"2013\/06\/12"}
,
{"name":"里港","id":"C0R59","lng":120.494590,"lat":22.779190,"海拔高度":"72m","縣市":"屏東縣","地址":"里港鄉永春村中山路104號(里港鄉公所)","英文name":"Ligang","設站日期":"2013\/06\/18"}
,
{"name":"舊泰武","id":"C0R60","lng":120.664944,"lat":22.588194,"海拔高度":"766m","縣市":"屏東縣","地址":"泰武鄉泰武村良武巷101號(舊泰武村老人活動中心)","英文name":"Jiutaiwu","設站日期":"2013\/10\/09"}
,
{"name":"墾雷","id":"C0R62","lng":120.855269,"lat":21.900836,"海拔高度":"34m","縣市":"屏東縣","地址":"恆春鎮燈塔路51巷33號(氣象局墾丁雷達站區內)","英文name":"Kenlei","設站日期":"2015\/12\/28"}
,
{"name":"紅葉山","id":"C0S68","lng":121.039208,"lat":22.919814,"海拔高度":"1659m","縣市":"臺東縣","地址":"延平鄉紅葉山瞭望臺旁(延平林道23k處步行約50分鐘)","英文name":"Hongyeshan","設站日期":"1997\/05\/15"}
,
{"name":"太麻里","id":"C0S69","lng":120.985330,"lat":22.609020,"海拔高度":"522m","縣市":"臺東縣","地址":"太麻里鄉(往金針山茶區之半路上)","英文name":"Taimali","設站日期":"1997\/04\/24"}
,
{"name":"知本","id":"C0S70","lng":121.005644,"lat":22.684872,"海拔高度":"507m","縣市":"臺東縣","地址":"卑南鄉溫泉村(溫泉國小之樂山分校內)","英文name":"Jhihben","設站日期":"1997\/04\/24"}
,
{"name":"鹿野","id":"C0S71","lng":121.122994,"lat":22.917711,"海拔高度":"382m","縣市":"臺東縣","地址":"臺東縣鹿野鄉鹿野高台高眺亭公廁東側草地上","英文name":"Luye","設站日期":"1997\/04\/22"}
,
{"name":"綠島","id":"C0S73","lng":121.475330,"lat":22.667200,"海拔高度":"110m","縣市":"臺東縣","地址":"綠島鄉","英文name":"Ludao","設站日期":"1997\/06\/14"}
,
{"name":"池上","id":"C0S74","lng":121.209469,"lat":23.119628,"海拔高度":"289m","縣市":"臺東縣","地址":"池上鄉新興村104號(退輔會臺東農場內)","英文name":"Chihshang","設站日期":"1997\/05\/08"}
,
{"name":"向陽","id":"C0S75","lng":120.986133,"lat":23.248397,"海拔高度":"2280m","縣市":"臺東縣","地址":"海端鄉向陽(公路局向陽工務段圍牆內)","英文name":"Siangyang","設站日期":"1997\/05\/17"}
,
{"name":"紅石","id":"C0S76","lng":121.126219,"lat":23.069131,"海拔高度":"1621m","縣市":"臺東縣","地址":"海端鄉紅石(紅石瞭望臺旁)","英文name":"Hongshih","設站日期":"1997\/05\/16"}
,
{"name":"大溪山","id":"C0S77","lng":120.943325,"lat":22.478475,"海拔高度":"375m","縣市":"臺東縣","地址":"太麻里鄉多良村(廢棄中華電信轉播站旁)","英文name":"Dasishan","設站日期":"1997\/04\/27"}
,
{"name":"金崙","id":"C0S79","lng":120.966875,"lat":22.538122,"海拔高度":"236m","縣市":"臺東縣","地址":"太麻里鄉金崙段0304-1地號","英文name":"Jinlun","設站日期":"2004\/04\/12"}
,
{"name":"東河","id":"C0S81","lng":121.303986,"lat":22.972672,"海拔高度":"65m","縣市":"臺東縣","地址":"東河鄉北東河17鄰26號(東河國民小學操場旁)","英文name":"Donghe","設站日期":"2004\/06\/01"}
,
{"name":"長濱","id":"C0S83","lng":121.411975,"lat":23.286817,"海拔高度":"288m","縣市":"臺東縣","地址":"長濱鄉竹湖村移民橋後方山頂三角點旁","英文name":"Changbin","設站日期":"2004\/06\/01"}
,
{"name":"南田","id":"C0S84","lng":120.889208,"lat":22.279725,"海拔高度":"22m","縣市":"臺東縣","地址":"達仁鄉南田村南田風景區公園對面","英文name":"Nantian","設站日期":"2004\/04\/12"}
,
{"name":"關山","id":"C0S89","lng":121.175017,"lat":23.039500,"海拔高度":"238m","縣市":"臺東縣","地址":"關山鎮親水公園內","英文name":"Guanshan","設站日期":"2015\/12\/06"}
,
{"name":"大禹嶺","id":"C0T79","lng":121.316086,"lat":24.186117,"海拔高度":"2830m","縣市":"花蓮縣","地址":"秀林鄉立霧溪事業區67林班地(救國團大禹山莊)","英文name":"Dayuling","設站日期":"1994\/11\/18"}
,
{"name":"天祥","id":"C0T82","lng":121.495639,"lat":24.179597,"海拔高度":"550m","縣市":"花蓮縣","地址":"秀林鄉立霧溪事業區80林班地(天祥祥德寺)","英文name":"Tiansiang","設站日期":"1995\/06\/27"}
,
{"name":"新城","id":"C0T84","lng":121.609461,"lat":24.037928,"海拔高度":"23m","縣市":"花蓮縣","地址":"新城鄉大漢村樹人街1號(大漢技術學院內)","英文name":"Sincheng","設站日期":"2009\/10\/15"}
,
{"name":"鯉魚潭","id":"C0T87","lng":121.508944,"lat":23.935639,"海拔高度":"135m","縣市":"花蓮縣","地址":"壽豐鄉池南村池南路一段8號(鯉魚潭風景區旁)","英文name":"Liyutan","設站日期":"1995\/05\/03"}
,
{"name":"西林","id":"C0T90","lng":121.441458,"lat":23.811900,"海拔高度":"160m","縣市":"花蓮縣","地址":"萬榮鄉西林路8鄰114號(西林國民小學運動場旁)","英文name":"Xilin","設站日期":"2010\/07\/01"}
,
{"name":"光復","id":"C0T96","lng":121.424964,"lat":23.660694,"海拔高度":"120m","縣市":"花蓮縣","地址":"光復鄉大進村糖廠街19號(台糖公司花蓮光復糖廠內)","英文name":"Guangfu","設站日期":"1995\/05\/03"}
,
{"name":"月眉山","id":"C0T9A","lng":121.539828,"lat":23.809928,"海拔高度":"498m","縣市":"花蓮縣","地址":"壽豐鄉月眉山旁的小山丘上(過米棧大橋往山上水璉方向至四號橋左轉之山上)","英文name":"Yuemeishan","設站日期":"2000\/08\/11"}
,
{"name":"水源","id":"C0T9B","lng":121.537169,"lat":23.991861,"海拔高度":"558m","縣市":"花蓮縣","地址":"秀林鄉原林務局水源段的苗圃內","英文name":"Shuiyuan","設站日期":"2000\/08\/07"}
,
{"name":"富世","id":"C0T9C","lng":121.629633,"lat":24.148153,"海拔高度":"109m","縣市":"花蓮縣","地址":"秀林鄉富世村127號(富世國小校園內)","英文name":"Fushih","設站日期":"2004\/04\/12"}
,
{"name":"和中","id":"C0T9D","lng":121.741261,"lat":24.266561,"海拔高度":"7m","縣市":"花蓮縣","地址":"秀林鄉和平國小和中分校校園內","英文name":"Hejhong","設站日期":"2004\/04\/12"}
,
{"name":"大坑","id":"C0T9E","lng":121.581981,"lat":23.880628,"海拔高度":"415m","縣市":"花蓮縣","地址":"壽豐鄉10鄰山嶺80之1號(中華電信公司賀田山機房)旁","英文name":"Dakeng","設站日期":"2004\/04\/08"}
,
{"name":"水璉","id":"C0T9F","lng":121.542514,"lat":23.797131,"海拔高度":"283m","縣市":"花蓮縣","地址":"壽豐鄉水璉村","英文name":"Shuilian","設站日期":"2004\/04\/12"}
,
{"name":"鳳林山","id":"C0T9G","lng":121.420131,"lat":23.735269,"海拔高度":"605m","縣市":"花蓮縣","地址":"鳳林鎮","英文name":"Fenglinshan","設站日期":"2004\/04\/26"}
,
{"name":"加路蘭山","id":"C0T9H","lng":121.527400,"lat":23.682947,"海拔高度":"725m","縣市":"花蓮縣","地址":"豐濱鄉臨海段776-4號之國防部陸軍總司令部加路蘭山營區","英文name":"Jialulanshan","設站日期":"2004\/04\/12"}
,
{"name":"豐濱","id":"C0T9I","lng":121.514806,"lat":23.583897,"海拔高度":"152m","縣市":"花蓮縣","地址":"豐濱鄉豐濱村","英文name":"Fengbin","設站日期":"2004\/04\/12"}
,
{"name":"靜浦","id":"C0T9M","lng":121.495028,"lat":23.455167,"海拔高度":"92m","縣市":"花蓮縣","地址":"豐濱鄉靜浦村活動中心後山上","英文name":"Jingpu","設站日期":"1997\/04\/30"}
,
{"name":"雙連埤","id":"C0U52","lng":121.641303,"lat":24.753033,"海拔高度":"517m","縣市":"宜蘭縣","地址":"員山鄉雙連埤地區(需徒步20分鐘)","英文name":"Shuanglianpi","設站日期":"2010\/01\/01"}
,
{"name":"礁溪","id":"C0U60","lng":121.765536,"lat":24.817544,"海拔高度":"10m","縣市":"宜蘭縣","地址":"礁溪鄉礁溪路四段23號(礁溪國民中學教室後宿舍旁)","英文name":"Chiaoshi","設站日期":"1995\/04\/26"}
,
{"name":"壯圍","id":"C0U62","lng":121.789650,"lat":24.743703,"海拔高度":"17m","縣市":"宜蘭縣","地址":"壯圍鄉壯五路40號(壯圍國民小學操場旁)","英文name":"Jhuangwei","設站日期":"2010\/07\/01"}
,
{"name":"玉蘭","id":"C0U65","lng":121.587061,"lat":24.675286,"海拔高度":"494m","縣市":"宜蘭縣","地址":"大同鄉松羅村鹿場路11號(往松羅山頂瞭望亭旁)","英文name":"Yulan","設站日期":"1995\/07\/28"}
,
{"name":"冬山","id":"C0U68","lng":121.793544,"lat":24.632419,"海拔高度":"22m","縣市":"宜蘭縣","地址":"冬山鄉南興村照安路26號(冬山國民中學內)","英文name":"Dongshan","設站日期":"2010\/07\/01"}
,
{"name":"太平山","id":"C0U71","lng":121.525656,"lat":24.505486,"海拔高度":"1810m","縣市":"宜蘭縣","地址":"大同鄉太平山93林班地(林務局路標22.3k處)","英文name":"Taipingshan","設站日期":"1995\/05\/29"}
,
{"name":"思源","id":"C0U73","lng":121.356664,"lat":24.397208,"海拔高度":"1984m","縣市":"宜蘭縣","地址":"大同鄉(思源啞口旁，大甲溪事業區第40林班)","英文name":"Siyuan","設站日期":"1995\/07\/28"}
,
{"name":"龜山島","id":"C0U75","lng":121.953133,"lat":24.841667,"海拔高度":"398m","縣市":"宜蘭縣","地址":"頭城鎮龜山島山頂401高地觀景台","英文name":"Gueishandao","設站日期":"2002\/09\/13"}
,
{"name":"東澳","id":"C0U76","lng":121.833086,"lat":24.521928,"海拔高度":"32m","縣市":"宜蘭縣","地址":"南澳鄉東岳村蘇花路三段209號(東澳國小校園內)","英文name":"Dong-ao","設站日期":"2004\/04\/12"}
,
{"name":"南澳","id":"C0U77","lng":121.810219,"lat":24.449347,"海拔高度":"5m","縣市":"宜蘭縣","地址":"南澳鄉中央氣象局地震中心系統維護課之南澳地震站","英文name":"Nan-ao","設站日期":"2005\/08\/15"}
,
{"name":"五結","id":"C0U78","lng":121.797944,"lat":24.686369,"海拔高度":"15m","縣市":"宜蘭縣","地址":"五結鄉五結中路二段88號(五結國小)","英文name":"WUJIE","設站日期":"2010\/04\/17"}
,
{"name":"表湖","id":"C0V15","lng":120.664664,"lat":23.260206,"海拔高度":"1163m","縣市":"高雄市","地址":"那瑪夏區曾文水庫表湖雨量測報站旁","英文name":"Biaohu","設站日期":"1988\/10\/27"}
,
{"name":"復興","id":"C0V21","lng":120.806089,"lat":23.222403,"海拔高度":"700m","縣市":"高雄市","地址":"桃源區復興里復興巷1鄰15號","英文name":"Fuxing","設站日期":"2013\/04\/18"}
,
{"name":"甲仙","id":"C0V25","lng":120.591758,"lat":23.080106,"海拔高度":"270m","縣市":"高雄市","地址":"甲仙區(甲仙國民中學操場後方小山丘上)","英文name":"Jiasian","設站日期":"1992\/01\/21"}
,
{"name":"月眉","id":"C0V26","lng":120.539853,"lat":22.971003,"海拔高度":"65m","縣市":"高雄市","地址":"杉林區月眉里山仙路1號月眉農場","英文name":"Yuemei","設站日期":"2013\/08\/01"}
,
{"name":"美濃","id":"C0V31","lng":120.519153,"lat":22.898742,"海拔高度":"46m","縣市":"高雄市","地址":"美濃區福安里中山路二段204巷65號(美濃區福安國小後方)","英文name":"Meinong","設站日期":"1992\/01\/22"}
,
{"name":"溪埔","id":"C0V35","lng":120.446797,"lat":22.738578,"海拔高度":"36m","縣市":"高雄市","地址":"大樹區溪埔里之台21線285k-286k間","英文name":"XIPU","設站日期":"2013\/12\/01"}
,
{"name":"內門","id":"C0V36","lng":120.466769,"lat":22.975481,"海拔高度":"94m","縣市":"高雄市","地址":"內門區木柵里木柵3號（木柵國民小學）","英文name":"Neimen","設站日期":"2013\/12\/01"}
,
{"name":"古亭坑","id":"C0V37","lng":120.401947,"lat":22.893178,"海拔高度":"30m","縣市":"高雄市","地址":"田寮區古亭里","英文name":"Gutingkeng","設站日期":"1992\/05\/01"}
,
{"name":"阿公店","id":"C0V40","lng":120.355528,"lat":22.804194,"海拔高度":"56m","縣市":"高雄市","地址":"燕巢區西燕里工程路1號（阿公店水庫內）","英文name":"Agongdian","設站日期":"2013\/12\/01"}
,
{"name":"鳳山","id":"C0V44","lng":120.356122,"lat":22.646653,"海拔高度":"27m","縣市":"高雄市","地址":"鳳山區文山路園藝巷4號（鳳山熱帶園藝試驗分所）","英文name":"Fengshan","設站日期":"2013\/12\/01"}
,
{"name":"鳳森","id":"C0V45","lng":120.392592,"lat":22.545064,"海拔高度":"51m","縣市":"高雄市","地址":"小港區水庫段96-1地號（鳳山給水廠內）","英文name":"Fengsen","設站日期":"2013\/12\/01"}
,
{"name":"新興","id":"C0V49","lng":120.298803,"lat":22.627422,"海拔高度":"20m","縣市":"高雄市","地址":"新興區大同一路231號(大同國小內5樓頂)","英文name":"Sinsing","設站日期":"2009\/10\/13"}
,
{"name":"旗津","id":"C0V50","lng":120.285944,"lat":22.588600,"海拔高度":"6m","縣市":"高雄市","地址":"旗津區中洲二路207號(旗津國中校園內)","英文name":"Cijin","設站日期":"2009\/10\/20"}
,
{"name":"阿蓮","id":"C0V53","lng":120.327508,"lat":22.883208,"海拔高度":"34m","縣市":"高雄市","地址":"阿蓮區公所樓頂","英文name":"Alian","設站日期":"2013\/08\/01"}
,
{"name":"梓官","id":"C0V61","lng":120.267211,"lat":22.760558,"海拔高度":"22m","縣市":"高雄市","地址":"梓官區梓官路258號(梓官區公所)","英文name":"Ziguan","設站日期":"2013\/10\/01"}
,
{"name":"永安","id":"C0V62","lng":120.236856,"lat":22.823150,"海拔高度":"18m","縣市":"高雄市","地址":"永安區永安路32號(永安消防分隊)","英文name":"Yong'an","設站日期":"2013\/09\/15"}
,
{"name":"茄萣","id":"C0V63","lng":120.182608,"lat":22.906642,"海拔高度":"19m","縣市":"高雄市","地址":"茄萣區濱海路四段27號(茄萣區公所)","英文name":"Qieding","設站日期":"2013\/09\/25"}
,
{"name":"湖內","id":"C0V64","lng":120.244500,"lat":22.887139,"海拔高度":"35m","縣市":"高雄市","地址":"湖內區中山路一段290之1號(湖街派出所)","英文name":"Hunei","設站日期":"2013\/10\/03"}
,
{"name":"彌陀","id":"C0V65","lng":120.246361,"lat":22.783806,"海拔高度":"28m","縣市":"高雄市","地址":"彌陀區中正北路7號(彌陀消防分隊)","英文name":"Mituo","設站日期":"2013\/09\/26"}
,
{"name":"岡山","id":"C0V66","lng":120.294958,"lat":22.797078,"海拔高度":"25m","縣市":"高雄市","地址":"岡山區岡山路341號(岡山地政事務所)","英文name":"Gangshan","設站日期":"2013\/10\/02"}
,
{"name":"楠梓","id":"C0V67","lng":120.286000,"lat":22.719750,"海拔高度":"20m","縣市":"高雄市","地址":"楠梓區德民路1010號(國昌國民中學)","英文name":"Nanzi","設站日期":"2013\/09\/30"}
,
{"name":"仁武","id":"C0V68","lng":120.347722,"lat":22.701083,"海拔高度":"40m","縣市":"高雄市","地址":"仁武區中正路133號(仁武區公所)","英文name":"Renwu","設站日期":"2013\/08\/16"}
,
{"name":"鼓山","id":"C0V69","lng":120.275575,"lat":22.623325,"海拔高度":"30m","縣市":"高雄市","地址":"鼓山區臨海一路61-1號(鼓山消防分隊)","英文name":"Gushan","設站日期":"2013\/09\/29"}
,
{"name":"三民","id":"C0V70","lng":120.311233,"lat":22.645017,"海拔高度":"24m","縣市":"高雄市","地址":"三民區十全一路88號(十全消防分隊)","英文name":"Sanmin","設站日期":"2013\/09\/29"}
,
{"name":"苓雅","id":"C0V71","lng":120.330669,"lat":22.622742,"海拔高度":"34m","縣市":"高雄市","地址":"苓雅區三多一路162號(苓雅消防分隊)","英文name":"LingYa","設站日期":"2013\/10\/03"}
,
{"name":"林園","id":"C0V72","lng":120.394511,"lat":22.507747,"海拔高度":"15m","縣市":"高雄市","地址":"林園區林園北路179號(林園區公所)","英文name":"Linyuan","設站日期":"2013\/06\/13"}
,
{"name":"大寮","id":"C0V73","lng":120.395717,"lat":22.605614,"海拔高度":"33m","縣市":"高雄市","地址":"大寮區鳳林三路492號(大寮區公所)","英文name":"Daliao","設站日期":"2013\/06\/13"}
,
{"name":"旗山","id":"C0V74","lng":120.483597,"lat":22.888614,"海拔高度":"60m","縣市":"高雄市","地址":"旗山區延平一路499號(旗山區公所)","英文name":"Qishan","設站日期":"2013\/05\/17"}
,
{"name":"路竹","id":"C0V75","lng":120.259439,"lat":22.854997,"海拔高度":"50m","縣市":"高雄市","地址":"路竹區國昌路76號(路竹區公所)","英文name":"Luzhu","設站日期":"2013\/09\/24"}
,
{"name":"橋頭","id":"C0V76","lng":120.305750,"lat":22.757806,"海拔高度":"30m","縣市":"高雄市","地址":"橋頭區隆豐路1號(橋頭區公所)","英文name":"Qiaotou","設站日期":"2013\/08\/30"}
,
{"name":"大社","id":"C0V77","lng":120.346639,"lat":22.730306,"海拔高度":"26m","縣市":"高雄市","地址":"大社區自強街1號(大社區公所)","英文name":"Dashe","設站日期":"2013\/09\/18"}
,
{"name":"萬山","id":"C0V79","lng":120.688056,"lat":22.905944,"海拔高度":"410m","縣市":"高雄市","地址":"茂林區萬山段710地號","英文name":"Wanshan","設站日期":"2013\/10\/22"}
,
{"name":"六龜","id":"C0V80","lng":120.633583,"lat":22.997889,"海拔高度":"256m","縣市":"高雄市","地址":"六龜區民治路9號(六龜消防隊)","英文name":"Liugui","設站日期":"2013\/10\/09"}
,
{"name":"左營","id":"C0V81","lng":120.284910,"lat":22.674910,"海拔高度":"32m","縣市":"高雄市","地址":"左營區左營大路1號(高雄市立海青高級工商職業學校資訊大樓樓頂)","英文name":"Zuoying","設站日期":"2015\/09\/09"}
,
{"name":"東莒","id":"C0W11","lng":119.980690,"lat":25.965200,"海拔高度":"16m","縣市":"連江縣","地址":"莒光鄉福正村1號(福正抽水機房，莒光遊客中心後方)","英文name":"Dongju","設站日期":"2016\/04\/11"}
,
{"name":"西嶼","id":"C0W12","lng":119.468436,"lat":23.562600,"海拔高度":"58m","縣市":"澎湖縣","地址":"西嶼鄉195號(西嶼燈塔西方)","英文name":"Xiyu","設站日期":"2016\/04\/19"}
,
{"name":"花嶼","id":"C0W13","lng":119.322760,"lat":23.400070,"海拔高度":"18m","縣市":"澎湖縣","地址":"望安鄉花嶼村2號(花嶼國民小學)","英文name":"Huayu","設站日期":"2016\/04\/16"}
,
{"name":"金沙","id":"C0W14","lng":118.408778,"lat":24.488292,"海拔高度":"21m","縣市":"金門縣","地址":"金沙鎮環島北路四段465號(金門縣自來水廠榮湖淨水場)","英文name":"Jinsha","設站日期":"2016\/08\/16"}
,
{"name":"金寧","id":"C0W15","lng":118.328989,"lat":24.457703,"海拔高度":"42m","縣市":"金門縣","地址":"金寧鄉頂林路315號(金門縣消防局)","英文name":"Jinning","設站日期":"2016\/08\/16"}
,
{"name":"烏坵","id":"C0W16","lng":119.449560,"lat":24.994400,"海拔高度":"49m","縣市":"金門縣","地址":"烏坵鄉","英文name":"Wuqiu","設站日期":"2016\/08\/17"}
,
{"name":"東引","id":"C0W17","lng":120.483631,"lat":26.358836,"海拔高度":"42m","縣市":"連江縣","地址":"東引鄉（東引機場候機室旁）","英文name":"Dongyin","設站日期":"2017\/06\/08"}
,
{"name":"東河","id":"C0X05","lng":120.385608,"lat":23.296598,"海拔高度":"25m","縣市":"臺南市","地址":"東山區東河里54號(東河水利工作站)","英文name":"Donghe","設站日期":"2015\/07\/01"}
,
{"name":"下營","id":"C0X06","lng":120.256261,"lat":23.226950,"海拔高度":"19m","縣市":"臺南市","地址":"下營區仁里里下營國小附近","英文name":"Xiaying","設站日期":"2015\/07\/01"}
,
{"name":"佳里","id":"C0X08","lng":120.145086,"lat":23.173039,"海拔高度":"2m","縣市":"臺南市","地址":"佳里區西方之埔尾，近七股區之篤加","英文name":"Jiali","設站日期":"1992\/12\/09"}
,
{"name":"臺南市北區","id":"C0X10","lng":120.194228,"lat":23.010394,"海拔高度":"10m","縣市":"臺南市","地址":"北區文賢路678號(和緯消防分隊)","英文name":"Beiqu Tainan City","設站日期":"2013\/02\/20"}
,
{"name":"臺南市南區","id":"C0X11","lng":120.188378,"lat":22.961189,"海拔高度":"20m","縣市":"臺南市","地址":"南區明興路2號(南區區公所)","英文name":"Nanqu Tainan City","設站日期":"2013\/02\/20"}
,
{"name":"麻豆","id":"C0X12","lng":120.248611,"lat":23.183289,"海拔高度":"28m","縣市":"臺南市","地址":"麻豆區興國路9號(麻豆消防分隊5樓頂)","英文name":"Madou","設站日期":"2013\/03\/09"}
,
{"name":"官田","id":"C0X13","lng":120.315422,"lat":23.193217,"海拔高度":"27m","縣市":"臺南市","地址":"官田區中山路一段132號(官田區公所)","英文name":"Guantian","設站日期":"2013\/03\/01"}
,
{"name":"西港","id":"C0X14","lng":120.203108,"lat":23.125608,"海拔高度":"17m","縣市":"臺南市","地址":"西港區中山路450號(西港消防分隊4樓頂)","英文name":"Xigang","設站日期":"2013\/03\/01"}
,
{"name":"安定","id":"C0X15","lng":120.227839,"lat":23.102614,"海拔高度":"18m","縣市":"臺南市","地址":"安定區南安村油車33之11號(安定消防分隊3樓頂)","英文name":"Anding","設站日期":"2013\/03\/15"}
,
{"name":"仁德","id":"C0X16","lng":120.257689,"lat":22.968258,"海拔高度":"26m","縣市":"臺南市","地址":"仁德區仁義路432號(仁德消防分隊)","英文name":"Rende","設站日期":"2013\/02\/28"}
,
{"name":"關廟","id":"C0X17","lng":120.327797,"lat":22.963017,"海拔高度":"50m","縣市":"臺南市","地址":"關廟區中正路998號(關廟區公所3樓頂)","英文name":"Guanmiao","設站日期":"2013\/05\/09"}
,
{"name":"山上","id":"C0X18","lng":120.363253,"lat":23.075700,"海拔高度":"62m","縣市":"臺南市","地址":"山上區豐德里隙子口5之1號(中油豐德供油中心2樓頂)","英文name":"Shanshang","設站日期":"2013\/03\/15"}
,
{"name":"安平","id":"C0X19","lng":120.152181,"lat":22.993161,"海拔高度":"10m","縣市":"臺南市","地址":"安平區城平路2號(台江國家公園管理處)","英文name":"Anping","設站日期":"2013\/02\/21"}
,
{"name":"左鎮","id":"C0X20","lng":120.408522,"lat":23.056758,"海拔高度":"61m","縣市":"臺南市","地址":"左鎮區中正里171號之4(左鎮區公所)","英文name":"Zuozhen","設站日期":"2013\/03\/07"}
,
{"name":"白河","id":"C0X21","lng":120.414427,"lat":23.347466,"海拔高度":"38m","縣市":"臺南市","地址":"白河區中山路6號(白河消防分隊)","英文name":"Baihe","設站日期":"2015\/04\/08"}
,
{"name":"學甲","id":"C0X22","lng":120.182187,"lat":23.230367,"海拔高度":"26m","縣市":"臺南市","地址":"學甲區華宗路313號(學甲區公所)","英文name":"Xuejia","設站日期":"2015\/05\/18"}
,
{"name":"鹽水","id":"C0X23","lng":120.247641,"lat":23.272621,"海拔高度":"29m","縣市":"臺南市","地址":"鹽水區竹埔里1號(竹埔派出所)","英文name":"Yanshui","設站日期":"2015\/04\/15"}
,
{"name":"關子嶺","id":"C0X24","lng":120.508025,"lat":23.331169,"海拔高度":"394m","縣市":"臺南市","地址":"白河區關嶺里94-3號(仙草國小關嶺分校)","英文name":"Guanziling","設站日期":"2015\/04\/12"}
,
{"name":"新營","id":"C0X25","lng":120.316698,"lat":23.310712,"海拔高度":"33m","縣市":"臺南市","地址":"新營區中正路30號(新營市代會)","英文name":"Xinying","設站日期":"2015\/04\/10"}
,
{"name":"後壁","id":"C0X26","lng":120.362326,"lat":23.366358,"海拔高度":"39m","縣市":"臺南市","地址":"後壁區後壁里129號(後壁圖書館)","英文name":"Houbi","設站日期":"2015\/04\/09"}
,
{"name":"柳營","id":"C0X27","lng":120.373569,"lat":23.257237,"海拔高度":"33m","縣市":"臺南市","地址":"柳營區果毅里61號(果毅國小)","英文name":"Liuying","設站日期":"2015\/05\/19"}
,
{"name":"將軍","id":"C0X28","lng":120.135770,"lat":23.214999,"海拔高度":"22m","縣市":"臺南市","地址":"將軍區將貴里58號(將軍國小)","英文name":"Jiangjun","設站日期":"2015\/04\/15"}
,
{"name":"北門","id":"C0X29","lng":120.125481,"lat":23.267772,"海拔高度":"10m","縣市":"臺南市","地址":"北門區北門里舊埕108號(北門區公所)","英文name":"Beimen","設站日期":"2015\/07\/22"}
,
{"name":"鹿寮","id":"C0X30","lng":120.477331,"lat":23.386047,"海拔高度":"70m","縣市":"臺南市","地址":"白河區崎內里12號(鹿寮水庫)","英文name":"Luliao","設站日期":"2015\/10\/28"}
,
{"name":"七股","id":"C0X31","lng":120.086253,"lat":23.147289,"海拔高度":"9m","縣市":"臺南市","地址":"七股區鹽埕237-11號(氣象局七股雷達站區內)","英文name":"Qigu","設站日期":"2015\/12\/27"}
,
{"name":"明里","id":"C0Z02","lng":121.262342,"lat":23.208717,"海拔高度":"211m","縣市":"花蓮縣","地址":"富里鄉明里村明里社區後方山上","英文name":"Mingli","設站日期":"2010\/07\/01"}
,
{"name":"佳心","id":"C0Z05","lng":121.213236,"lat":23.345503,"海拔高度":"830m","縣市":"花蓮縣","地址":"卓溪鄉佳心(玉山國家公園內，距花蓮卓溪鄉南安遊客步行2.5時之日據時代派出所舊址)","英文name":"Jiaxin","設站日期":"1997\/04\/24"}
,
{"name":"玉里","id":"C0Z06","lng":121.339656,"lat":23.321500,"海拔高度":"174m","縣市":"花蓮縣","地址":"玉里鎮樂合里新民41號(樂合國小)","英文name":"Yuli","設站日期":"2008\/02\/20"}
,
{"name":"舞鶴","id":"C0Z07","lng":121.374069,"lat":23.468114,"海拔高度":"272m","縣市":"花蓮縣","地址":"瑞穗鄉舞鶴村加納納山三角點旁","英文name":"Wuhe","設站日期":"1997\/04\/17"}
,
{"name":"富源","id":"C0Z08","lng":121.378225,"lat":23.587642,"海拔高度":"298m","縣市":"花蓮縣","地址":"光復鄉大豐村9鄰265號(富源國中對面之半山腰上)","英文name":"Fu-Juan","設站日期":"2011\/10\/24"}
,
{"name":"東華","id":"C0Z10","lng":121.549833,"lat":23.895250,"海拔高度":"36m","縣市":"花蓮縣","地址":"壽豐鄉大學路二段1號（國立東華大學）","英文name":"Donghwa","設站日期":"2013\/11\/27"}
,
{"name":"吉安光華","id":"C0Z15","lng":121.595153,"lat":23.930925,"海拔高度":"27m","縣市":"花蓮縣","地址":"吉安鄉南濱路一段531號(水資源回收中心)","英文name":"Guanghua Ji-an","設站日期":"2017\/06\/03"}
,
{"name":"鳳林","id":"C0Z16","lng":121.453411,"lat":23.746114,"海拔高度":"124m","縣市":"花蓮縣","地址":"鳳林鎮信義路200號(鳳林地政事務所)","英文name":"Fenglin","設站日期":"2017\/06\/03"}
,
{"name":"萬榮","id":"C0Z20","lng":121.420106,"lat":23.709219,"海拔高度":"153m","縣市":"花蓮縣","地址":"鳳林鎮長橋里長橋路2號(長橋國小)","英文name":"Wanrong","設站日期":"2017\/06\/03"}
,
{"name":"豐裡","id":"C0Z26","lng":121.507636,"lat":23.842133,"海拔高度":"64m","縣市":"花蓮縣","地址":"壽豐鄉豐裡村中山路299號(豐裡國小)","英文name":"Fengli","設站日期":"2017\/06\/03"}
,
{"name":"蕃薯寮","id":"C0Z27","lng":121.540108,"lat":23.738350,"海拔高度":"343m","縣市":"花蓮縣","地址":"壽豐鄉水璉村蕃薯寮附近山區道路旁(牛山段607地號內)","英文name":"Fanshuliao","設站日期":"2017\/06\/03"}
,
{"name":"下盆","id":"C1A63","lng":121.538622,"lat":24.771003,"海拔高度":"527m","縣市":"新北市","地址":"烏來區東勢溪中游(步行一小時)","英文name":"Siapen","設站日期":"1987\/05\/01"}
,
{"name":"公館","id":"C1A73","lng":121.539539,"lat":25.014372,"海拔高度":"22m","縣市":"臺北市","地址":"大安區羅斯福路四段1號(臺灣大學大氣科學系觀測坪內)","英文name":"Gongguan","設站日期":"1987\/05\/01"}
,
{"name":"四十份","id":"C1A9N","lng":121.593283,"lat":24.934158,"海拔高度":"435m","縣市":"新北市","地址":"新店區北宜路旁(文山事業區第四林班)","英文name":"Sihshihfen","設站日期":"2000\/06\/01"}
,
{"name":"關渡","id":"C1AC5","lng":121.469331,"lat":25.133486,"海拔高度":"111m","縣市":"臺北市","地址":"北投區學園路2號(臺北城市科技大學校園內5樓頂)","英文name":"Guandu","設站日期":"1992\/02\/27"}
,
{"name":"水尾","id":"C1C51","lng":121.087161,"lat":24.940081,"海拔高度":"106m","縣市":"桃園市","地址":"楊梅區豐野里1鄰151號(富崗水尾工作站內)","英文name":"Shueiwei","設站日期":"1987\/06\/01"}
,
{"name":"新埔","id":"C1D38","lng":121.038340,"lat":24.847450,"海拔高度":"65m","縣市":"新竹縣","地址":"新埔鎮下寮里43號義民廟右方路旁","英文name":"Sinpu","設站日期":"1987\/06\/01"}
,
{"name":"鳥嘴山","id":"C1D40","lng":121.283870,"lat":24.719090,"海拔高度":"839m","縣市":"新竹縣","地址":"尖石鄉新樂村復興礦場","英文name":"Niaozueishan","設站日期":"1987\/06\/01"}
,
{"name":"白蘭","id":"C1D41","lng":121.079947,"lat":24.579364,"海拔高度":"1290m","縣市":"新竹縣","地址":"五峰鄉桃山村","英文name":"Bailan","設站日期":"1987\/06\/01"}
,
{"name":"太閣南","id":"C1D42","lng":121.160575,"lat":24.632808,"海拔高度":"1279m","縣市":"新竹縣","地址":"五峰鄉羅山工作站後方山頂羅山瞭望台旁","英文name":"Taigenan","設站日期":"1987\/06\/01"}
,
{"name":"飛鳳山","id":"C1D63","lng":121.119178,"lat":24.766464,"海拔高度":"462m","縣市":"新竹縣","地址":"芎林鄉王爺坑段83-7號地","英文name":"Fei Feng Mountain","設站日期":"2011\/09\/27"}
,
{"name":"外坪(五指山)","id":"C1D64","lng":121.090961,"lat":24.644447,"海拔高度":"718m","縣市":"新竹縣","地址":"北埔鄉大坪段內大坪小段36-54號地","英文name":"Waiping(Wuzhihshan)","設站日期":"2011\/09\/27"}
,
{"name":"象鼻","id":"C1E45","lng":120.940228,"lat":24.368617,"海拔高度":"950m","縣市":"苗栗縣","地址":"泰安鄉象鼻村","英文name":"Xiangbi","設站日期":"2011\/11\/01"}
,
{"name":"松安","id":"C1E46","lng":120.986022,"lat":24.397972,"海拔高度":"1325m","縣市":"苗栗縣","地址":"泰安鄉雪霸國家公園二本松解說站旁","英文name":"Song-an","設站日期":"2011\/11\/1"}
,
{"name":"鳳美","id":"C1E48","lng":121.034747,"lat":24.554803,"海拔高度":"576m","縣市":"苗栗縣","地址":"南庄鄉東河村24鄰石門1號(南庄往鹿場途中)","英文name":"Fongmei","設站日期":"1990\/07\/01"}
,
{"name":"高中","id":"C1V23","lng":120.716711,"lat":23.134911,"海拔高度":"731m","縣市":"高雄市","地址":"桃源區高中里","英文name":"Gaozhong","設站日期":"2013\/04\/18"}
,
{"name":"新開","id":"C1E51","lng":120.827019,"lat":24.347703,"海拔高度":"326m","縣市":"苗栗縣","地址":"大湖鄉新開村新開4鄰20號旁","英文name":"Xinkai","設站日期":"2011\/11\/01"}
,
{"name":"南勢","id":"C1E60","lng":120.734842,"lat":24.572486,"海拔高度":"125m","縣市":"苗栗縣","地址":"後龍鎮南港里南勢山","英文name":"Nanshi","設站日期":"2011\/11\/01"}
,
{"name":"南礦","id":"C1E67","lng":121.002836,"lat":24.538278,"海拔高度":"1209m","縣市":"苗栗縣","地址":"南庄鄉蓬萊林道末端(南庄事業區18林班地)","英文name":"Nankuang","設站日期":"2002\/05\/09"}
,
{"name":"南勢山","id":"C1E68","lng":120.923831,"lat":24.421669,"海拔高度":"977m","縣市":"苗栗縣","地址":"泰安鄉大興村(從泰安國小進入站址車程約10分鐘)","英文name":"Nanshishan","設站日期":"2011\/11\/01"}
,
{"name":"南湖","id":"C1E69","lng":120.837533,"lat":24.401350,"海拔高度":"786m","縣市":"苗栗縣","地址":"大湖鄉(位於南湖台3線135k處之吊樑道山上)","英文name":"Nanhu","設站日期":"2011\/11\/01"}
,
{"name":"八卦","id":"C1E70","lng":120.927619,"lat":24.491756,"海拔高度":"737m","縣市":"苗栗縣","地址":"泰安鄉(與八卦派出所相距約1.2k處)","英文name":"Bagua","設站日期":"2011\/11\/01"}
,
{"name":"馬拉邦山","id":"C1E71","lng":120.901656,"lat":24.367306,"海拔高度":"990m","縣市":"苗栗縣","地址":"大湖鄉東興村(馬拉邦山登山口)","英文name":"Malabangshan","設站日期":"2011\/11\/01"}
,
{"name":"泰安","id":"C1E72","lng":120.968036,"lat":24.489017,"海拔高度":"1409m","縣市":"苗栗縣","地址":"泰安鄉橫龍古道上(走路約5分鐘)之大湖事業區18林班地","英文name":"Tai-an","設站日期":"2011\/11\/01"}
,
{"name":"公館","id":"C1E77","lng":120.830806,"lat":24.526914,"海拔高度":"83m","縣市":"苗栗縣","地址":"公館鄉鶴岡村178號(鶴岡國中)","英文name":"Gongguan","設站日期":"2011\/04\/24"}
,
{"name":"上谷關","id":"C1F87","lng":121.018644,"lat":24.203483,"海拔高度":"1000m","縣市":"臺中市","地址":"和平區(博愛國小谷關分校附近)","英文name":"Shangguguan","設站日期":"2011\/11\/01"}
,
{"name":"稍來","id":"C1F89","lng":121.005628,"lat":24.263456,"海拔高度":"2205m","縣市":"臺中市","地址":"和平區八仙山事業區49林班地船型山苗圃廢棄觀測坪附近","英文name":"Shaolai","設站日期":"2011\/11\/01"}
,
{"name":"新伯公","id":"C1F91","lng":120.841069,"lat":24.221361,"海拔高度":"417m","縣市":"臺中市","地址":"東勢區詒福段163地號(台電公司門前右前方)","英文name":"Xinbogong","設站日期":"2011\/11\/01"}
,
{"name":"雪嶺","id":"C1F94","lng":121.026642,"lat":24.280586,"海拔高度":"2620m","縣市":"臺中市","地址":"和平區雪嶺地區八仙山事業區60林班地小雪山莊後方水塔後山頂","英文name":"Xueling","設站日期":"2011\/11\/1"}
,
{"name":"桐林","id":"C1F9B","lng":120.735194,"lat":24.066172,"海拔高度":"130m","縣市":"臺中市","地址":"霧峰區桐林里民生路(桐林國小斜對面)","英文name":"Tonglin","設站日期":"2011\/11\/01"}
,
{"name":"白冷","id":"C1F9C","lng":120.929889,"lat":24.182844,"海拔高度":"610m","縣市":"臺中市","地址":"和平區天輪里天輪巷42號(臺中市和平區白冷國民小學校園內)","英文name":"Baileng","設站日期":"2011\/11\/01"}
,
{"name":"白毛台","id":"C1F9D","lng":120.886933,"lat":24.158325,"海拔高度":"639m","縣市":"臺中市","地址":"新社區福興里福民路13號旁","英文name":"Baimaotai","設站日期":"2011\/11\/1"}
,
{"name":"龍安","id":"C1F9E","lng":120.831961,"lat":24.160500,"海拔高度":"563m","縣市":"臺中市","地址":"新社區中和里內(距龍安橋約1.2k處)","英文name":"Long-an","設站日期":"2011\/11\/1"}
,
{"name":"伯公龍","id":"C1F9F","lng":120.849047,"lat":24.272392,"海拔高度":"500m","縣市":"臺中市","地址":"東勢區勢林街(宏覺寺旁)","英文name":"Bogonglong","設站日期":"2011\/11\/1"}
,
{"name":"慶福山","id":"C1F9G","lng":120.848378,"lat":24.180853,"海拔高度":"810m","縣市":"臺中市","地址":"東勢區(台8線10.5k往馬鞍農場方向.車程約半小時)","英文name":"Cingfushan","設站日期":"2011\/11\/01"}
,
{"name":"烏石坑","id":"C1F9H","lng":120.945811,"lat":24.279058,"海拔高度":"930m","縣市":"臺中市","地址":"和平區大安溪事業區第122林班之烏石坑苗圃內","英文name":"Wushikeng","設站日期":"2011\/11\/01"}
,
{"name":"清水林","id":"C1F9J","lng":120.820419,"lat":24.071242,"海拔高度":"723m","縣市":"臺中市","地址":"太平區136縣道9.5k處旁約500公尺","英文name":"Qingshuilin","設站日期":"2011\/11\/01"}
,
{"name":"德基","id":"C1F9W","lng":121.190261,"lat":24.254783,"海拔高度":"1970m","縣市":"臺中市","地址":"和平區台8甲線69-70k處，彎入勝利路接翠巒產業道路約6.2km，路邊白色水塔旁","英文name":"Deji","設站日期":"2011\/09\/08"}
,
{"name":"下水埔","id":"C1G69","lng":120.567600,"lat":23.816114,"海拔高度":"110m","縣市":"彰化縣","地址":"溪州鄉榮光村國光路1號(退輔會工程事業材料處彰化工廠)","英文name":"Xiashuipu","設站日期":"1992\/05\/05"}
,
{"name":"翠峰","id":"C1H00","lng":121.205211,"lat":24.109397,"海拔高度":"2454m","縣市":"南投縣","地址":"仁愛鄉大同村仁和路136號(臺14甲線19-19.5k處的長途通信機房旁)","英文name":"Cuifeng","設站日期":"1991\/12\/12"}
,
{"name":"瑞岩","id":"C1H86","lng":121.183450,"lat":24.123772,"海拔高度":"1840m","縣市":"南投縣","地址":"仁愛鄉","英文name":"Ruiyan","設站日期":"1991\/12\/12"}
,
{"name":"清流","id":"C1H90","lng":120.962997,"lat":24.080775,"海拔高度":"934m","縣市":"南投縣","地址":"仁愛鄉互助村","英文name":"Qingliu","設站日期":"1991\/12\/12"}
,
{"name":"長豐","id":"C1H92","lng":120.879897,"lat":24.102039,"海拔高度":"736m","縣市":"南投縣","地址":"國姓鄉長豐村東二巷71號(仙徠山莊內)","英文name":"Changfeng","設站日期":"1991\/12\/12"}
,
{"name":"雙冬","id":"C1H94","lng":120.802189,"lat":23.967378,"海拔高度":"630m","縣市":"南投縣","地址":"草屯鎮雙冬里","英文name":"Shuangdong","設站日期":"2011\/11\/01"}
,
{"name":"六分寮","id":"C1H97","lng":120.637800,"lat":23.925070,"海拔高度":"428m","縣市":"南投縣","地址":"南投市鳳鳴里八卦路831號(南投縣政府消防局第一大隊鳳鳴分隊)","英文name":"Liufenliao","設站日期":"2011\/11\/1"}
,
{"name":"阿眉","id":"C1H9B","lng":120.994672,"lat":24.126300,"海拔高度":"1710m","縣市":"南投縣","地址":"仁愛鄉(水利局雨量站旁)","英文name":"Amei","設站日期":"2011\/11\/1"}
,
{"name":"萬大","id":"C1I02","lng":121.132261,"lat":23.979817,"海拔高度":"1120m","縣市":"南投縣","地址":"仁愛鄉親愛村萬大水庫宿舍旁","英文name":"Wanda","設站日期":"1992\/05\/12"}
,
{"name":"武界","id":"C1I03","lng":121.052483,"lat":23.913225,"海拔高度":"948m","縣市":"南投縣","地址":"仁愛鄉法治村","英文name":"Wujie","設站日期":"1992\/05\/03"}
,
{"name":"丹大","id":"C1I05","lng":121.141147,"lat":23.753747,"海拔高度":"2568m","縣市":"南投縣","地址":"信義鄉丹大事業區第10林班地(瞭望臺旁)","英文name":"Danda","設站日期":"1992\/05\/01"}
,
{"name":"和社","id":"C1I07","lng":120.888861,"lat":23.591131,"海拔高度":"825m","縣市":"南投縣","地址":"信義鄉中橫同富村同和巷47號和社分社觀測坪內","英文name":"Heshe","設站日期":"1992\/05\/01"}
,
{"name":"溪頭","id":"C1I10","lng":120.807647,"lat":23.661789,"海拔高度":"1810m","縣市":"南投縣","地址":"鹿谷鄉內湖村森林巷溪頭林營區(鳳凰山瞭望台旁)","英文name":"Xitou","設站日期":"2011\/11\/01"}
,
{"name":"大鞍","id":"C1I12","lng":120.760017,"lat":23.678381,"海拔高度":"1515m","縣市":"南投縣","地址":"竹山鎮樟空倫山之三角點附近","英文name":"Da-an","設站日期":"2011\/11\/01"}
,
{"name":"桶頭","id":"C1I13","lng":120.654117,"lat":23.641944,"海拔高度":"311m","縣市":"南投縣","地址":"竹山鎮鯉南路338號旁","英文name":"Tongtou","設站日期":"2011\/11\/01"}
,
{"name":"卡奈托灣","id":"C1I14","lng":121.087872,"lat":23.754364,"海拔高度":"1700m","縣市":"南投縣","地址":"信義鄉丹大事業區第16林班地","英文name":"Kanaituowan","設站日期":"1993\/01\/21"}
,
{"name":"青雲","id":"C1I15","lng":120.949378,"lat":23.793361,"海拔高度":"393m","縣市":"南投縣","地址":"信義鄉地利村5鄰開信巷98-3號旁","英文name":"Qingyun","設站日期":"1992\/12\/01"}
,
{"name":"中心崙","id":"C1I20","lng":120.712097,"lat":23.728722,"海拔高度":"677m","縣市":"南投縣","地址":"竹山鎮之中心崙林道4.1km處","英文name":"Zhongxinlun","設站日期":"2011\/11\/01"}
,
{"name":"蘆竹湳","id":"C1I21","lng":120.811994,"lat":23.934019,"海拔高度":"529m","縣市":"南投縣","地址":"中寮鄉清水村龍林巷4鄰58之6號旁","英文name":"Luzhunan","設站日期":"2011\/11\/01"}
,
{"name":"樟湖","id":"C1I22","lng":120.846983,"lat":23.905333,"海拔高度":"1098m","縣市":"南投縣","地址":"國姓鄉147縣道9km處與站址直線距離約1.6km","英文name":"Zhanghu","設站日期":"2002\/05\/04"}
,
{"name":"九份二山","id":"C1I23","lng":120.845000,"lat":23.961944,"海拔高度":"837m","縣市":"南投縣","地址":"國姓鄉南港村九份二山上(921地震紀念公園內)","英文name":"Jiufen'ershan","設站日期":"2002\/05\/07"}
,
{"name":"外大坪","id":"C1I24","lng":120.917931,"lat":23.958697,"海拔高度":"725m","縣市":"南投縣","地址":"埔里鎮種瓜路(投68)路口至站址車程約20分鐘","英文name":"Waidaping","設站日期":"2002\/05\/03"}
,
{"name":"鯉潭","id":"C1I25","lng":120.991131,"lat":23.961922,"海拔高度":"732m","縣市":"南投縣","地址":"埔里鎮埔里高工旁中心路2km處","英文name":"Litan","設站日期":"2002\/04\/30"}
,
{"name":"北坑","id":"C1I26","lng":121.006903,"lat":23.924600,"海拔高度":"601m","縣市":"南投縣","地址":"埔里鎮麒麟里4鄰武界路31號旁","英文name":"Beikeng","設站日期":"2002\/05\/02"}
,
{"name":"豐丘","id":"C1I29","lng":120.887417,"lat":23.668178,"海拔高度":"1151m","縣市":"南投縣","地址":"信義鄉豐丘村豐丘產業道路末端","英文name":"Fengqiu","設站日期":"2002\/03\/05"}
,
{"name":"西巒","id":"C1I31","lng":120.883956,"lat":23.754486,"海拔高度":"1033m","縣市":"南投縣","地址":"南投縣信義鄉台21線道之人倫林道9.5k處","英文name":"Xiluan","設站日期":"2002\/04\/25"}
,
{"name":"奧萬大","id":"C1I32","lng":121.178556,"lat":23.952956,"海拔高度":"1275m","縣市":"南投縣","地址":"仁愛鄉奧萬大森林遊樂區內(員工宿舍)","英文name":"Aowanda","設站日期":"2002\/05\/15"}
,
{"name":"楓樹林","id":"C1I33","lng":121.076117,"lat":23.986803,"海拔高度":"1266m","縣市":"南投縣","地址":"仁愛鄉埔里事業區107林班地(臺14線近埔里市區)","英文name":"Fengshulin","設站日期":"2002\/05\/01"}
,
{"name":"新興橋","id":"C1I34","lng":120.868728,"lat":23.563333,"海拔高度":"897m","縣市":"南投縣","地址":"信義鄉臺21線新興橋附近","英文name":"Xinxingqiao","設站日期":"2002\/03\/09"}
,
{"name":"凌霄","id":"C1I40","lng":121.004456,"lat":24.018778,"海拔高度":"1399m","縣市":"南投縣","地址":"仁愛鄉守城段4地號","英文name":"Lingxiao","設站日期":"2015\/08\/28"}
,
{"name":"翠華","id":"C1I43","lng":121.224339,"lat":24.191961,"海拔高度":"2415m","縣市":"南投縣","地址":"仁愛鄉翠華村華岡段70地號內","英文name":"Cuihua","設站日期":"2015\/08\/06"}
,
{"name":"新高口","id":"C1I44","lng":120.878939,"lat":23.478744,"海拔高度":"2540m","縣市":"南投縣","地址":"信義鄉新高口(臺18線約107.5k處路旁，對高岳營林區第31林班446號林地內)","英文name":"Xingaokou","設站日期":"1992\/01\/21"}
,
{"name":"望鄉山","id":"C1I45","lng":120.944286,"lat":23.594153,"海拔高度":"3025m","縣市":"南投縣","地址":"信義鄉巒大事業區第131林班內(郡大林道約32K附近，望鄉山三角點旁)","英文name":"Wangxiangshan","設站日期":"2015\/11\/06"}
,
{"name":"杉林溪","id":"C1I47","lng":120.786444,"lat":23.639517,"海拔高度":"1680m","縣市":"南投縣","地址":"竹山鎮大鞍里(杉林溪森林生態渡假園區收費亭附近，向欣谷碑旁)","英文name":"Shanlinxi","設站日期":"2015\/11\/05"}
,
{"name":"大尖山","id":"C1I50","lng":120.994889,"lat":23.858572,"海拔高度":"2017m","縣市":"南投縣","地址":"仁愛鄉大尖山","英文name":"Dajianshan","設站日期":"2015\/11\/12"}
,
{"name":"線浸林道","id":"C1I51","lng":120.832956,"lat":23.761508,"海拔高度":"1208m","縣市":"南投縣","地址":"鹿谷鄉線浸林道11k附近","英文name":"Xianjinlindao","設站日期":"2015\/11\/17"}
,
{"name":"口湖","id":"C1K54","lng":120.180517,"lat":23.585344,"海拔高度":"15m","縣市":"雲林縣","地址":"口湖鄉口湖村中正路一段280號(口湖消防分隊)","英文name":"Kouhu","設站日期":"2015\/10\/30"}
,
{"name":"龍美","id":"C1M39","lng":120.654417,"lat":23.406728,"海拔高度":"1090m","縣市":"嘉義縣","地址":"番路鄉公興村隆美地區(舊地名為瀨頭)私人茶園內","英文name":"Longmei","設站日期":"1988\/10\/07"}
,
{"name":"菜瓜坪","id":"C1M40","lng":120.576103,"lat":23.251928,"海拔高度":"369m","縣市":"嘉義縣","地址":"大埔鄉西興村","英文name":"Caiguaping","設站日期":"1988\/10\/07"}
,
{"name":"獨立山","id":"C1M48","lng":120.607797,"lat":23.537022,"海拔高度":"798m","縣市":"嘉義縣","地址":"竹崎鄉(阿里山鐵路獨立山站旁獨立山之三角點)","英文name":"Dulishan","設站日期":"1992\/12\/31"}
,
{"name":"大湖","id":"C1M57","lng":120.620216,"lat":23.474958,"海拔高度":"728m","縣市":"嘉義縣","地址":"番路鄉大湖村五鄰下坪8號(嘉義縣番路鄉大湖國民小學內)","英文name":"Dahu","設站日期":"1992\/12\/05"}
,
{"name":"頭凍","id":"C1M60","lng":120.603339,"lat":23.406364,"海拔高度":"986m","縣市":"嘉義縣","地址":"番路鄉阿里山公路23k處轉入興社產業道路盡頭","英文name":"Toudong","設站日期":"2002\/04\/11"}
,
{"name":"石磐龍","id":"C1M61","lng":120.663506,"lat":23.496606,"海拔高度":"1083m","縣市":"嘉義縣","地址":"竹崎鄉光華村","英文name":"Shipanlong","設站日期":"2002\/04\/10"}
,
{"name":"瑞里","id":"C1M62","lng":120.675197,"lat":23.545133,"海拔高度":"1252m","縣市":"嘉義縣","地址":"梅山鄉瑞里派出所旁小路至站址(公墓旁)車程約10分鐘","英文name":"Ruili","設站日期":"2002\/04\/17"}
,
{"name":"沙崙","id":"C1N00","lng":120.309406,"lat":22.935472,"海拔高度":"24m","縣市":"臺南市","地址":"歸仁區沙崙里184號北沙崙農場","英文name":"Shalun","設站日期":"2013\/08\/01"}
,
{"name":"環湖","id":"C1O85","lng":120.418633,"lat":23.148617,"海拔高度":"44m","縣市":"臺南市","地址":"大內區頭社里10號(大內國小鳴頭分校內)","英文name":"Huanhu","設站日期":"1988\/10\/07"}
,
{"name":"大棟山","id":"C1O87","lng":120.522260,"lat":23.311570,"海拔高度":"1249m","縣市":"臺南市","地址":"白河區大棟山三角點","英文name":"Dadongshan","設站日期":"1988\/10\/07"}
,
{"name":"關山","id":"C1O88","lng":120.594092,"lat":23.173397,"海拔高度":"223m","縣市":"臺南市","地址":"南化區關山里西阿里山關83號(瑞峰國小附近)","英文name":"Guanshan","設站日期":"1988\/10\/07"}
,
{"name":"楠西","id":"C1O92","lng":120.484083,"lat":23.183511,"海拔高度":"115m","縣市":"臺南市","地址":"楠西區中興路107號(楠西國民中學內)","英文name":"Nanxi","設站日期":"2013\/04\/18"}
,
{"name":"口社","id":"C1R11","lng":120.645222,"lat":22.770111,"海拔高度":"110m","縣市":"屏東縣","地址":"三地門鄉口社村5鄰信義巷58-5號","英文name":"Gusia","設站日期":"1992\/01\/22"}
,
{"name":"上德文","id":"C1R12","lng":120.704442,"lat":22.763272,"海拔高度":"820m","縣市":"屏東縣","地址":"三地門鄉德文村口之公墓旁","英文name":"Shangdewun","設站日期":"1992\/01\/22"}
,
{"name":"龍泉","id":"C1R20","lng":120.602017,"lat":22.667097,"海拔高度":"63m","縣市":"屏東縣","地址":"內埔鄉龍泉村原勝路6號(崇文國民小學內)","英文name":"Longquan","設站日期":"2013\/08\/01"}
,
{"name":"力里","id":"C1R25","lng":120.629228,"lat":22.428117,"海拔高度":"92m","縣市":"屏東縣","地址":"春日鄉七佳村自強一路92號(力里國民小學內)","英文name":"Lili","設站日期":"1997\/08\/20"}
,
{"name":"石門山","id":"C1R29","lng":120.756597,"lat":22.112611,"海拔高度":"260m","縣市":"屏東縣","地址":"牡丹鄉石門古戰場(恆春事業區29林班地)","英文name":"Shihmenshan","設站日期":"1997\/07\/01"}
,
{"name":"旭海","id":"C1R30","lng":120.887671,"lat":22.194639,"海拔高度":"13m","縣市":"屏東縣","地址":"牡丹鄉旭海村6號(旭海分駐所對面平地上)","英文name":"Syuhai","設站日期":"1997\/05\/01"}
,
{"name":"車城","id":"C1R32","lng":120.716247,"lat":22.074400,"海拔高度":"7m","縣市":"屏東縣","地址":"車城鄉福興村中山路66號(車城國民小學操場旁)","英文name":"Checheng","設站日期":"1997\/05\/08"}
,
{"name":"枋山","id":"C1R33","lng":120.661078,"lat":22.246861,"海拔高度":"9m","縣市":"屏東縣","地址":"枋山鄉中山路三段52號加祿國小成功分班內（廢校中）","英文name":"Fangshan","設站日期":"1997\/05\/07"}
,
{"name":"牡丹","id":"C1R34","lng":120.792611,"lat":22.130014,"海拔高度":"230m","縣市":"屏東縣","地址":"牡丹鄉恆春事業區第二五林班(199縣道23k-23.5k間之側坡地上)","英文name":"Mudan","設站日期":"1997\/05\/08"}
,
{"name":"大漢山","id":"C1R44","lng":120.753181,"lat":22.405264,"海拔高度":"1654m","縣市":"屏東縣","地址":"春日鄉大漢山頂","英文name":"Da-Han_Shan","設站日期":"2011\/10\/30"}
,
{"name":"西大武山","id":"C1R61","lng":120.732200,"lat":22.617719,"海拔高度":"1828m","縣市":"屏東縣","地址":"泰武鄉北大武山步道2.6k","英文name":"Xidawushan","設站日期":"2013\/10\/27"}
,
{"name":"土阪","id":"C1S62","lng":120.887556,"lat":22.453108,"海拔高度":"122m","縣市":"臺東縣","地址":"達仁鄉土阪村1鄰10號(土阪國民小學操場旁)","英文name":"Tuban","設站日期":"1997\/04\/28"}
,
{"name":"都蘭","id":"C1S63","lng":121.227975,"lat":22.878397,"海拔高度":"23m","縣市":"臺東縣","地址":"東河鄉都蘭村431號(都蘭國民小學操場旁)","英文name":"Dulian","設站日期":"1997\/04\/30"}
,
{"name":"下馬","id":"C1S66","lng":121.070025,"lat":23.150194,"海拔高度":"794m","縣市":"臺東縣","地址":"海端鄉廢棄下馬派出所旁","英文name":"Siama","設站日期":"1997\/05\/17"}
,
{"name":"摩天","id":"C1S67","lng":121.027000,"lat":23.199503,"海拔高度":"1580m","縣市":"臺東縣","地址":"海端鄉(省道臺20線169K福德宮後方)","英文name":"Motian","設站日期":"1997\/05\/17"}
,
{"name":"華源","id":"C1S80","lng":121.023250,"lat":22.657883,"海拔高度":"80m","縣市":"臺東縣","地址":"太麻里鄉華源村","英文name":"Huayuan","設站日期":"2004\/04\/12"}
,
{"name":"金峰","id":"C1S82","lng":120.933236,"lat":22.590969,"海拔高度":"177m","縣市":"臺東縣","地址":"金峰鄉嘉蘭村嘉蘭國小旁","英文name":"Jinfeng","設站日期":"2004\/04\/12"}
,
{"name":"豐南","id":"C1S85","lng":121.262389,"lat":23.122139,"海拔高度":"489m","縣市":"花蓮縣","地址":"富里鄉豐南村花82縣道盡頭叉路1k旁","英文name":"Funan","設站日期":"2011\/10\/26"}
,
{"name":"利嘉","id":"C1S86","lng":121.050528,"lat":22.809417,"海拔高度":"516m","縣市":"臺東縣","地址":"卑南鄉利嘉林道6k附近梅子園","英文name":"LiChai","設站日期":"2011\/10\/27"}
,
{"name":"南美山","id":"C1S87","lng":121.382333,"lat":23.150250,"海拔高度":"222m","縣市":"臺東縣","地址":"成功鎮南美山產業道路盡頭柑橘園","英文name":"NanMaiSan","設站日期":"2011\/10\/25"}
,
{"name":"壽卡","id":"C1S88","lng":120.858903,"lat":22.238911,"海拔高度":"474m","縣市":"臺東縣","地址":"達仁鄉(大武事業區第48林班內)電信轉播站後方","英文name":"Shouka","設站日期":"1997\/05\/05"}
,
{"name":"洛韶","id":"C1T80","lng":121.453956,"lat":24.204558,"海拔高度":"1260m","縣市":"花蓮縣","地址":"秀林鄉富世村中橫公路洛韶11號旁","英文name":"Luoshao","設站日期":"1995\/06\/27"}
,
{"name":"慈恩","id":"C1T81","lng":121.388386,"lat":24.192044,"海拔高度":"2049m","縣市":"花蓮縣","地址":"秀林鄉富世村關原路3號(救國團慈恩山莊)","英文name":"Cih-en","設站日期":"1995\/06\/27"}
,
{"name":"布洛灣","id":"C1T83","lng":121.571270,"lat":24.171840,"海拔高度":"675m","縣市":"花蓮縣","地址":"秀林鄉布洛灣地區(布洛灣遊客中心圓環之廣場旁邊)","英文name":"Buluowan","設站日期":"1995\/06\/27"}
,
{"name":"東壙","id":"C1T91","lng":121.404706,"lat":23.853572,"海拔高度":"653m","縣市":"花蓮縣","地址":"萬榮鄉西林村1-1號(榮民工程處蔣公銅像旁)","英文name":"Dongkuang","設站日期":"1995\/04\/23"}
,
{"name":"中興","id":"C1T92","lng":121.498653,"lat":23.769503,"海拔高度":"68m","縣市":"花蓮縣","地址":"壽豐鄉中興大橋橋頭旁","英文name":"Zhongxing","設站日期":"1995\/04\/01"}
,
{"name":"大觀","id":"C1T94","lng":121.373133,"lat":23.714206,"海拔高度":"539m","縣市":"花蓮縣","地址":"萬榮鄉(往臺16線過管制哨約12k處)","英文name":"Daguan","設站日期":"1995\/04\/23"}
,
{"name":"太安","id":"C1T95","lng":121.370128,"lat":23.666719,"海拔高度":"1050m","縣市":"花蓮縣","地址":"萬榮鄉太田事業區128林班地(馬太鞍苗圃)","英文name":"Tai-an","設站日期":"1995\/04\/19"}
,
{"name":"大農","id":"C1T97","lng":121.413331,"lat":23.615233,"海拔高度":"183m","縣市":"花蓮縣","地址":"光復鄉花蓮糖廠之大農農場內(大農段691號)","英文name":"Danong","設站日期":"1995\/04\/23"}
,
{"name":"龍澗","id":"C1T98","lng":121.411328,"lat":24.023289,"海拔高度":"1306m","縣市":"花蓮縣","地址":"秀林鄉龍澗發電廠旁","英文name":"Longjian","設站日期":"1995\/04\/01"}
,
{"name":"高寮","id":"C1T99","lng":121.356808,"lat":23.394239,"海拔高度":"128m","縣市":"花蓮縣","地址":"玉里鎮觀音里15鄰9號(觀音國民小學校園內)","英文name":"Gaoliao","設站日期":"1997\/04\/19"}
,
{"name":"牛鬥","id":"C1U50","lng":121.573656,"lat":24.637836,"海拔高度":"280m","縣市":"宜蘭縣","地址":"大同鄉牛鬥地區","英文name":"Nioudou","設站日期":"1995\/05\/19"}
,
{"name":"古魯","id":"C1U51","lng":121.671639,"lat":24.571639,"海拔高度":"492m","縣市":"宜蘭縣","地址":"大同鄉(羅東事業區第58林班內)","英文name":"Gulu","設站日期":"1995\/05\/19"}
,
{"name":"北關","id":"C1U58","lng":121.873428,"lat":24.907222,"海拔高度":"8m","縣市":"宜蘭縣","地址":"頭城鎮(北關海防班哨旁)","英文name":"Beiguan","設站日期":"1995\/04\/26"}
,
{"name":"大礁溪","id":"C1U61","lng":121.678333,"lat":24.785958,"海拔高度":"268m","縣市":"宜蘭縣","地址":"礁溪鄉二結村1鄰9-1號(國立宜蘭大學實驗林場)","英文name":"Dajiaosi","設站日期":"1995\/04\/26"}
,
{"name":"再連","id":"C1U63","lng":121.679411,"lat":24.715053,"海拔高度":"140m","縣市":"宜蘭縣","地址":"員山鄉內城湖旁之山上果園","英文name":"Zailian","設站日期":"1995\/05\/19"}
,
{"name":"三星","id":"C1U66","lng":121.654400,"lat":24.670636,"海拔高度":"103m","縣市":"宜蘭縣","地址":"三星鄉月眉街(三星鄉運動公園)","英文name":"Sansing","設站日期":"1995\/05\/19"}
,
{"name":"寒溪","id":"C1U67","lng":121.716744,"lat":24.634186,"海拔高度":"147m","縣市":"宜蘭縣","地址":"冬山鄉大進村大進七路51號(大進國民小學校園內)","英文name":"Hansi","設站日期":"1995\/05\/19"}
,
{"name":"新寮","id":"C1U69","lng":121.751267,"lat":24.625561,"海拔高度":"101m","縣市":"宜蘭縣","地址":"冬山鄉中山瀑布附近","英文name":"Sinliao","設站日期":"1995\/05\/19"}
,
{"name":"南山","id":"C1U72","lng":121.381669,"lat":24.437419,"海拔高度":"1260m","縣市":"宜蘭縣","地址":"大同鄉南山村4鄰埤南巷31-3號(南山國民小學內)","英文name":"Nanshan","設站日期":"1995\/05\/19"}
,
{"name":"烏石鼻","id":"C1U83","lng":121.839383,"lat":24.482681,"海拔高度":"618m","縣市":"宜蘭縣","地址":"蘇澳鎮之烏石鼻(南澳事業區第10鄰班地上)","英文name":"Wushibi","設站日期":"2010\/12\/26"}
,
{"name":"東澳嶺","id":"C1U84","lng":121.848500,"lat":24.537800,"海拔高度":"750m","縣市":"宜蘭縣","地址":"南澳鄉","英文name":"Dongaoling","設站日期":"2011\/06\/09"}
,
{"name":"觀音海岸","id":"C1U85","lng":121.778556,"lat":24.383194,"海拔高度":"665m","縣市":"宜蘭縣","地址":"南澳鄉之林務局羅東林區管理處和平事業區91林班","英文name":"Guanyinhaian","設站日期":"2011\/06\/09"}
,
{"name":"頭城","id":"C1U86","lng":121.830797,"lat":24.853233,"海拔高度":"5m","縣市":"宜蘭縣","地址":"頭城鎮協天路468號(中華電信頭城海纜站內)","英文name":"Toucheng","設站日期":"2015\/05\/15"}
,
{"name":"達卡努瓦","id":"C1V16","lng":120.705319,"lat":23.279811,"海拔高度":"1040m","縣市":"高雄市","地址":"那瑪夏區達卡努瓦里","英文name":"Dakanuwa","設站日期":"1992\/01\/21"}
,
{"name":"排雲","id":"C1V17","lng":120.954147,"lat":23.463619,"海拔高度":"3690m","縣市":"高雄市","地址":"桃源區排雲山莊往南峰方向步行約6小時(登山口-8.5k排雲山莊-1.5k測站)","英文name":"Paiyun","設站日期":"1992\/02\/01"}
,
{"name":"南天池","id":"C1V19","lng":120.911760,"lat":23.274030,"海拔高度":"2700m","縣市":"高雄市","地址":"桃源區長春祠旁之步道步行約50分鐘","英文name":"Nantianchi","設站日期":"1992\/01\/21"}
,
{"name":"梅山","id":"C1V20","lng":120.823556,"lat":23.268447,"海拔高度":"870m","縣市":"高雄市","地址":"桃源區梅山里(梅山口遊客中心旁道路步行約10分鐘)","英文name":"Meishan","設站日期":"1992\/01\/21"}
,
{"name":"小關山","id":"C1V22","lng":120.813603,"lat":23.154217,"海拔高度":"1781m","縣市":"高雄市","地址":"桃源區老濃溪事業區99林班地","英文name":"Xiaoguanshan","設站日期":"1992\/01\/22"}
,
{"name":"御油山","id":"C1V30","lng":120.715364,"lat":23.001983,"海拔高度":"1637m","縣市":"高雄市","地址":"桃源區農業委員會林業試驗所六龜分所鳳崗山苗圃觀測坪內","英文name":"Yuyoushan","設站日期":"1992\/01\/22"}
,
{"name":"大津","id":"C1V34","lng":120.645986,"lat":22.888322,"海拔高度":"190m","縣市":"高雄市","地址":"六龜區大津里34號(龍興國小大津分校)","英文name":"Dajin","設站日期":"1992\/01\/22"}
,
{"name":"尖山","id":"C1V39","lng":120.367789,"lat":22.813153,"海拔高度":"60m","縣市":"高雄市","地址":"燕巢區尖山里尖山巷11之1號(燕巢國小尖山分校)","英文name":"Jianshan","設站日期":"1992\/01\/22"}
,
{"name":"吉東","id":"C1V57","lng":120.545400,"lat":22.854220,"海拔高度":"82m","縣市":"高雄市","地址":"美濃區吉東里吉頂路19號(吉東國小)","英文name":"JiaDong","設站日期":"2013\/05\/16"}
,
{"name":"溪南(特生中心)","id":"C1V58","lng":120.788475,"lat":23.084972,"海拔高度":"1656m","縣市":"高雄市","地址":"桃源區石山林道7k(特有生物研究保育中心中海拔試驗站)","英文name":"Xinan","設站日期":"2013\/02\/26"}
,
{"name":"新發","id":"C1V59","lng":120.646064,"lat":23.057019,"海拔高度":"741m","縣市":"高雄市","地址":"六龜區旗山事業區61林班地","英文name":"Xinfa","設站日期":"2013\/09\/28"}
,
{"name":"藤枝","id":"C1V60","lng":120.757042,"lat":23.071961,"海拔高度":"1561m","縣市":"高雄市","地址":"桃源區藤枝森林遊樂區遊客中心","英文name":"Tengzhi","設站日期":"2013\/02\/22"}
,
{"name":"多納林道","id":"C1V78","lng":120.737917,"lat":22.888028,"海拔高度":"1050m","縣市":"高雄市","地址":"茂林區多納林道9k(林試所六龜研究中心多納苗圃)","英文name":"Duonalindao","設站日期":"2013\/10\/17"}
,
{"name":"東原","id":"C1X04","lng":120.463822,"lat":23.291597,"海拔高度":"232m","縣市":"臺南市","地址":"東山區高原里4鄰31號後方果園","英文name":"Dongyuan","設站日期":"1992\/12\/11"}
,
{"name":"卓樂","id":"C1Z01","lng":121.271644,"lat":23.297017,"海拔高度":"198m","縣市":"花蓮縣","地址":"卓溪鄉卓清村卓樂社區長老教會旁","英文name":"Jhuole","設站日期":"1997\/04\/19"}
,
{"name":"紅葉","id":"C1Z03","lng":121.338806,"lat":23.493119,"海拔高度":"218m","縣市":"花蓮縣","地址":"萬榮鄉紅葉村教堂附近","英文name":"Hongye","設站日期":"1997\/04\/19"}
,
{"name":"立山","id":"C1Z04","lng":121.327375,"lat":23.443356,"海拔高度":"434m","縣市":"花蓮縣","地址":"卓溪鄉立山村後山上","英文name":"Lishan","設站日期":"1997\/04\/19"}
,
{"name":"三棧","id":"C1Z09","lng":121.605119,"lat":24.116964,"海拔高度":"706m","縣市":"花蓮縣","地址":"秀林鄉雙露山","英文name":"San-Zhan","設站日期":"2011\/10\/21"}
,
{"name":"壽豐","id":"C1Z12","lng":121.508081,"lat":23.870853,"海拔高度":"62m","縣市":"花蓮縣","地址":"壽豐鄉壽豐村壽山路37號(壽豐鄉文康中心)","英文name":"Shoufeng","設站日期":"2017\/06\/03"}
,
{"name":"銅門","id":"C1Z13","lng":121.492842,"lat":23.965694,"海拔高度":"187m","縣市":"花蓮縣","地址":"秀林鄉銅門村69號(銅門國小)","英文name":"Tongmen","設站日期":"2017\/06\/03"}
]}